stop_id,stop_name,stop_lat,stop_lon
2050,Santa Liberata bv,44.516413839726646,10.989261186435176
2048,Caseificio Rola,44.521372903021735,10.980017582630705
2046,Sant'Eusebio bv,44.525852428650225,10.970869507422794
2040,Confine,44.503970741276241,11.022652005397104
2036,San Pellegrino,44.523701383317523,11.02231557750698
2030,Savignano Mulino,44.492611739953006,11.045262951179964
2029,Franchini,44.496732570386406,11.045897597873848
2024,Ponte Legno,44.495608380633826,10.943813909178877
2022,Fornace Cavallini,44.490976892084781,10.940352287645068
2020,Bell'Italia,44.485133977302169,10.936121739006987
2018,Serra di Levizzano,44.48242488545359,10.926500211968143
2016,Laghetto,44.480801042012352,10.919216298229976
2014,Casa Duchi,44.482384861016847,10.912817241194176
617,Km 161,44.649743652179318,10.797471133500849
614,Emilia Ovest bv Virgilio,44.647456397250316,10.859899153157761
6958,Germania bv Nazioni,44.670667307129527,10.933964267079281
6957,Nazioni bv Cavazza,44.675462508561424,10.935738759585757
6956,Don Monari Chiesa,44.662680992846788,10.927114126889869
6955,Nazioni bv Bulgaria,44.673321110564366,10.934607676647918
6953,Germania bv Ungheria,44.669858735377197,10.937053412335871
6951,Romania,44.667455173160299,10.937049021362261
6947,Anderlini asilo,44.661570364063579,10.926244812896782
6945,Canaletto cantina Chiarli,44.660374430448208,10.928828808690731
6944,Don Monari bv Canaletto,44.662243323916144,10.929042164614982
6938,Sant'Anna bv Suore,44.662920149740117,10.912893396081943
6937,Suore SETA,44.663013270877443,10.916466243468978
6924,Suore bv Tangenziale,44.662838399737588,10.918302129984712
6920,Cassiani,44.661746283220005,10.924888349485881
692,Villa Nasi,44.682933510183496,10.937918235897023
6915,Scuole Marconi,44.65782022540948,10.930812622174015
6910,SANT'ANNA CAPOLINEA,44.664634345709445,10.913744497755919
6909,GRAMSCI,44.661584900323746,10.940801580499668
6908,Gramsci bv Donati,44.660608268223051,10.939999559803748
6907,Gramsci bv Toniolo,44.659093712827868,10.938536355480981
6905,Gramsci edicola,44.657331489466827,10.936812723188627
6903,Gramsci farmacia,44.655772543930489,10.935310372774561
2910,Vitriola bv,44.356958398518032,10.629596325025039
2902,Palagano Municipio,44.320564082332154,10.648113807435204
290,San Martino Secchia bv,44.813029992477901,10.993073811280381
2890,Casa Volpe,44.349840290793487,10.625584836167732
2888,Giunzione,44.333584610268524,10.544244328824405
2886,Croce d'Isola,44.341021551830671,10.542871470934127
2884,Ceresola,44.342190604324919,10.558219666584653
2882,Le Borre,44.346124836935957,10.562175503806971
2880,Farneta,44.349129330274671,10.570887348402509
2878,Mulino Porcella,44.346542064625723,10.575058777841051
2876,Gusciola,44.349960836508409,10.586931728340206
2874,Casa Nuova Saletto,44.352441882970965,10.598818205319361
2872,Ca' Bocci,44.354009428206318,10.613466222345458
2860,Pieve,44.35725676214679,10.610468477411755
2858,Albero,44.363807687657719,10.612605734429494
2856,Rubbiano,44.367306912247741,10.616630043791378
2850,Rubbiano bv,44.373972185244853,10.625285945380091
2840,Chilometro 39 e 800,44.372413930088015,10.629761381518847
2838,Casa Sabatini,44.370831078782238,10.631537394706857
2836,Boschi,44.367624089421817,10.635451952786539
2834,Case Nuove,44.374772157372675,10.624743236796613
2833,Montestefano,44.376502553729097,10.62207978116075
2832,Casa Quaranta,44.374095125456591,10.617896293616724
2830,Ponte Dolo,44.375174792712002,10.612214820850326
2818,Lame,44.335275010601485,11.010570327806201
2816,Villa Pianazzi,44.333673402531709,10.999239268545292
2815,Ceretolo,44.323818966169725,11.014906832836809
2812,Pediera,44.350507125692332,10.984881000835212
2800,Novi,44.894304606604678,10.90049051002252
280,Cortile scuole,44.815156596730382,10.978982188403599
2793,Dante,44.34707853470448,10.835730672718309
2792,Minghetti,44.770323760904191,10.88438792160532
2778,Molino,44.359366373319318,10.947207914241094
2770,Missano bv,44.360901976107321,10.946907422300308
2768,Gainazzo bv,44.363881404181818,10.941120355018255
2766,Salda,44.36014712372932,10.933580644116876
2764,Ponte,44.356468674939499,10.923232964195567
2760,Samone,44.365284545098845,10.948596271138793
2596,Caduti in guerra orto botanico,44.647822473862881,10.933772213194704
2595,Tagliazucchi,44.645960507911084,10.934744379612182
2594,Ospedale Estense,44.648368829697901,10.920069715109845
2593,Vittorio Veneto bv Trombi,44.645858124860979,10.920012081465355
2592,Rimembranze bv Canalchiaro,44.642811031792881,10.921336434759555
2591,Rimembranze bv Selmi,44.642121542080261,10.923255539450738
2590,Prefettura,44.642378308036612,10.929379681469088
2589,Caduti in guerra,44.646365048499668,10.932651884220336
2587,Caduti in guerra Tempio,44.651697277413533,10.933018202227856
2746,Ginevra,44.365557586569359,10.969413215831974
2744,Giostra,44.360046801513086,10.972604164461456
2742,Derna,44.35743884003395,10.978163347832849
2740,Monteombraro bv,44.355801563146521,10.982763516883377
2730,Zocchetta,44.363103612227761,10.986862573464792
272,Mulino Cortile,44.803550807763443,10.973375598770868
2714,Campo Sportivo,44.373999558769349,11.005255465524666
2710,Baggiovara FP,44.603467179072858,10.874409866604465
270,Cortile,44.794837774495996,10.968097253896467
2694,Braglie 518,44.370736945112199,10.988990836319479
2692,Braglie 1265,44.376025287893818,10.986709673474314
2690,Montecorone,44.375433891048395,10.982924039626942
2688,Acqua Sulfurea bv,44.372824526819372,10.979208558645817
2686,Casa Paderno,44.374157934030222,10.974471239765698
2680,Montecorone bv,44.373828611979256,10.964858073313803
268,San Pellegrino Cortile,44.788946118476147,10.963636765572476
2672,Casa Sassi,44.382672204714318,10.970439045517816
2670,Rocca Malatina,44.387700033339371,10.966012747269982
2668,Tagliata,44.40599064030372,10.959379175225948
2666,Monte Cresce,44.409325780222723,10.959138896659606
2665,Monteorsello,44.410474822367256,10.966662793969215
2664,Oratorio,44.414107340242879,10.964837720892698
2662,Braglia,44.415269101278987,10.956950877317714
2602,Montese Torre,44.268645085084586,10.947692348583962
2601,Montese Mulino,44.268746750389077,10.943310433230838
2600,Montese,44.268822660733008,10.939904946425241
260,Griduzza scuole,44.792137999559479,10.949155937937544
2560,Sant'Antonio,44.370026402191165,10.835192452154804
256,Cortile Calanca,44.788798824560438,10.977385690161288
2552,Il Ronco,44.363841833303503,10.837408830540946
2550,Acquabona,44.35693655572959,10.841885974116583
916,Salvarola bv,44.52299038028373,10.766185601327045
915,Varana bv,44.525408258287143,10.769920721272937
913,Varana bv,44.526333582016981,10.771207202381639
911,Ponte Alto Nuovo,44.522098181876515,10.774954585577431
909,Ponte Nuovo,44.529120012176179,10.773808697816662
908,Montanara,44.533201935322012,10.777041382073941
125,Fanti FS,44.656017679815484,10.929869904331822
1754,La Busa,44.578121361105261,10.973466331392972
1748,San Vito chiesa,44.556485329889028,10.977279983959887
1746,Spinara,44.547721286378213,10.995136652184554
1744,Casa Toschi,44.544455905481449,11.002704002658417
1742,Spilamberto zona artigianale,44.541773177858254,11.008339456556229
1249,Casa Badoglio,44.373402613832653,10.667908384224996
1248,Case Popolari,44.376223200387642,10.674490571245563
1247,Lama di Monchio,44.378937101139321,10.670525904908018
1246,Mulino Lama,44.382769605056481,10.670710238588939
1245,San Martino bv,44.385527720627849,10.6698722424943
1243,Casa Sistoni,44.385857105775884,10.66086756314893
1242,Monchio,44.384512039002146,10.649317415986697
1241,Casa Ponci,44.387108279338214,10.645335184469808
124,Bisighini bv,44.829048696722253,11.002114326598981
1239,Sant'Anna,44.59824641789367,11.017504386809689
1233,Croce di Monchio,44.399449779895072,10.641675327438078
1231,Ca' De Villa,44.404443645937036,10.646863484213128
1228,La Curva,44.414049404013802,10.638742757941253
1223,Saltino poste,44.423422654081222,10.644908995536468
1216,Serravalle bv,44.42535755515614,10.980654350699293
1215,Fornace,44.434357204438406,10.988082626720011
1213,La Torre,44.444010129903894,10.985896751778009
1212,Torre scuole,44.445426263663677,10.976921571448507
1211,Ponte Borlengo,44.451244555417674,10.984558371553204
1209,Villa Torreggiani,44.459565451627391,11.005543330267768
1208,Garofano bv,44.458262612004852,11.002833906579935
1207,Zocca bv 1,44.46432493166683,11.012871899580514
1205,Vignola Centro,44.479181115051325,11.008679997765324
1203,Formica,44.471258633562073,11.009200208147236
1201,Campiglio bv,44.469703242022824,11.021832284823756
12,Rimembranze ex Questura,44.641547357195776,10.925808884423688
1199,Casa Bighini,44.474962616685389,11.02984720063618
1198,Osteria Vecchia,44.426897137130425,10.847461761688702
2814,Fogna,44.338591071171358,11.000146539685575
942,Caselle,44.830947294189158,10.952791781917353
940,Rovereto Industriale est,44.822763752792746,10.950719250530618
938,Benzi bv,44.833268636710898,10.953388902757878
937,Lugli scuole,44.829352609117102,10.947070560282908
936,Rovereto Industriale ovest,44.825136955126652,10.946169627978511
934,Bottega Guerzoni,44.822212713028136,10.946083856324719
932,Ponticelli,44.816584508513117,10.931349788579862
930,San Marino,44.808257698260661,10.913696562625592
922,Cacciatori trattoria,44.797058681236798,10.922821336572822
921,San Marino bv,44.800412556193898,10.902639128961056
920,Cibeno,44.795912557577225,10.895537531414819
918,Cibeno farmacia,44.791081287653078,10.892648663533976
914,Ghiacciaia,44.707142927042874,11.017308436981537
912,Casa Sasso,44.700080393087546,11.011963743922937
910,Villavara,44.690384057479292,11.00689538325517
894,Metano,44.684274866722276,11.003113274129058
892,Albareto bv,44.676880399911454,10.998177465985751
890,Navicello,44.669014542413684,10.993416016347975
1975,Fontanaluccia bv,44.274432549447319,10.528384090230817
1974,Ravarino,44.724060470509002,11.098585230138211
1973,Mezzuola,44.308235432236074,11.012329777249217
1972,Civico 226,44.310958250295499,11.015168743700917
1971,Casa Miro,44.312608959467475,11.013457298457409
1969,Ristorante La Trappola,44.316858567729255,11.009865872877208
1968,La Trappola,44.31879937134913,11.010082631609304
1967,Alienda,44.275287923838654,10.937185516592002
1966,Casa Zocco,44.280674984213348,10.933803527626162
1965,Bertocchi Bar,44.28403772927367,10.93086845633036
1964,Salto Chiesa,44.282767997177139,10.92608962705906
1963,Lavatoio,44.280871649198239,10.923759367527426
1962,Fucina,44.279075282092201,10.921369861853707
1961,San Martino,44.279231873274007,10.916337267699019
1959,Maglificio,44.281979321693214,10.914634506912776
1958,Casa Fabbro,44.283230051507225,10.907682040978976
1957,San Giacomo Maggiore,44.286913586490556,10.905445051987863
1956,Casolare,44.346679273441914,10.925032997831302
1955,Verica casa cantoniera,44.333756469905559,10.927921452439255
1953,Baita Panaro,44.272071972838482,10.867036744030477
1952,La Borra,44.282604358062265,10.877534106412611
1951,Il Frantoio,44.285122694920993,10.878779901339836
1943,Chiozzo,44.291881667619521,10.884924161807421
1941,Lido Panaro,44.299231322366438,10.891803368732571
1938,Ristorante Martino,44.309013425653241,10.906661666382963
1937,San Rocco,44.289233263258126,10.901308742015498
1936,Caseificio,44.288507638936167,10.896760707563255
1935,Casa Bussoli,44.291203638940367,10.895970116733448
1931,Antoniano,44.296250873048429,10.900507363281413
1929,Ponte Saburano,44.301814163305053,10.907017774929102
1927,Docciola Vecchia,44.306290289671892,10.911224842900841
1925,Ponte,44.309595722921294,10.910604936380437
1923,La Maesta,44.275858287014131,10.801707840700059
1921,Casa Bettini,44.278417657427369,10.802688337436523
1919,Ponte Prugneto,44.291418300537217,10.79923809155758
690,San Matteo 1,44.691391280773907,10.943475625292606
6891,Centro Commerciale 2000,44.658183162066955,10.891383726683832
6888,D'AVIA,44.652132115335668,10.889295217775462
6886,D'Avia bv Silone,44.65683891402896,10.889927385903052
688,Villa Zuccoli,44.698213495045643,10.947793345748387
6872,Cialdini,44.655096060262665,10.915637809637504
6871,Galaverna,44.654932785118213,10.913564011169996
6869,Nazionale per Carpi bv Bembo,44.662710787865983,10.899011094488023
6867,SAN CATALDO CIMITERO,44.66126898100984,10.906658368796128
6865,Emilia Ovest Comet,44.653523089184866,10.874269029161386
686,Monumento,44.70618759578177,10.955281454834024
6859,TRE OLMI,44.671479301580909,10.866243803029063
6857,Barchetta Tre Olmi centro,44.670130251872926,10.867815296715632
6855,Barchetta Progeo,44.667257220782957,10.872289629420244
6851,Barchetta allevamento,44.664538722885446,10.877210016370391
6849,Barchetta bv Ponte Alto nord,44.663372880701388,10.88076741530149
6847,Barchetta bv Monti,44.661143729791583,10.886560679741281
6845,Barchetta bv Anesino,44.660739449277692,10.889776642978454
6839,Barchetta asilo,44.659257065728276,10.895026045092154
6455,Vignolese la Fenice,44.605845939554413,10.967386012223461
6453,Vignolese Enel,44.608079858093753,10.963126303123406
6451,Vignolese bv Bacelliera,44.610884310500488,10.960233951054597
6449,Vignolese la Fornace,44.614417614361109,10.957882561915202
6447,Vignolese bv Barchessa,44.62036852387633,10.954187729904366
6439,Vignolese bv Saluzzo,44.627965236544675,10.946361951016982
6435,Vignolese bv Campi,44.63079608922866,10.941363333074774
6433,Vignolese Punta,44.632431237652369,10.939438496572381
6432,Vaciglio bv Nuoro,44.622232332304172,10.940976967928863
3479,Sassorosso bv,44.269949949591592,10.60446086516405
1060,Il Fiasco,44.872026953528085,11.124036121376662
1054,La Picca,44.875440689494319,11.098131883819352
1052,Case Quattro Frati,44.872282211537886,11.105397704571416
1051,Carrobbio,44.863392511077556,11.114414976316757
1050,San Biagio,44.858592677387783,11.125655608434418
1040,Ca' Bianca,44.856368727399058,11.142052196025631
1030,San Giacomo Roncole,44.861603063756164,11.060150434462038
1020,Camurana stazione,44.865338824750019,11.067625503068312
1010,Fontana maglificio,44.873922232229873,11.068376065677517
1000,Concordia,44.91365382806628,10.988011308329765
100,Bastiglia,44.726840398454343,11.000402479018611
10,MODENA  AUTOSTAZIONE,44.650810425740055,10.919418836369442
6182,Caduti in guerra giardini,44.649979061526963,10.934007843386011
6281,CUBA,44.661354594732764,10.965314954644226
6280,Cavo Argine bv Portorico,44.662497231376179,10.961165737492131
6211,Verdi ACI,44.642700076016915,10.935367333022215
6475,Lazio,44.620475680402265,10.93892685194224
6476,Le Torri,44.622648722566282,10.937663042103704
2553,Roma,44.730335848353249,10.792123870464605
2551,Casa Serena,44.51864818446667,10.76521133017205
2554,Roma,44.730312898646147,10.792438879612785
2461,Salvarola Terme,44.518737539368622,10.767000799732406
2558,Tasso,44.529588278740263,10.779008029511594
403,CARPI TERMINAL BUS,44.782057787912237,10.875390834159571
404,CARPI TERMINAL BUS,44.782002350552425,10.875477518748044
489,CARPI TERMINAL BUS,44.781938538313341,10.875526011989544
493,CARPI TERMINAL BUS,44.781883723496023,10.875574796538112
495,CARPI TERMINAL BUS,44.781820118767179,10.875610656345879
504,CARPI TERMINAL BUS,44.781747516586613,10.875646224654618
507,CARPI TERMINAL BUS,44.781692909277602,10.87568237573084
519,CARPI TERMINAL BUS,44.781556494740471,10.875766436543069
523,CARPI TERMINAL BUS,44.781501887395549,10.875802587391325
2010,Monteombraro Serre,44.376700842225652,11.009326789911634
999,Mulino,44.516292970667628,10.753300195242886
998,San Michele Basso,44.511500790683776,10.749960811488831
996,Ardinale,44.508390714798928,10.741400935813074
995,Magazzeno,44.504058370480379,10.735032370167962
994,Casa Botti,44.497917689017726,10.730938319926285
993,Superchia,44.519545013485427,10.759601201944369
992,Casa Candelli,44.496020835685613,10.726001921629692
991,Pescale,44.494401003532737,10.718797439022929
989,Pescale Enel,44.491660238493957,10.716666853121055
988,Fredda,44.487141802496083,10.710007289887061
987,Casa Sarto,44.482765042295952,10.705289464113328
2125,La Pietra,44.440870098563835,10.717063426837903
2124,Casa Bortolini,44.442116619741881,10.710188412569982
2123,Riviera,44.443469407737737,10.704610566706869
2122,Poggio Bianco,44.457586487406822,10.680258937394777
2120,Castelvecchio,44.449336409837528,10.672531811018139
2118,Casa Sartori,44.446914797444634,10.671293915093017
2116,Croce di Canneto,44.443360952123747,10.66929498998528
2115,Canneto,44.440575124519178,10.669567494260253
2114,Casa Duca,44.42055852486871,10.682074439406989
2112,Sassofosco,44.424879803899948,10.67595470609899
2110,Ponte Prignano,44.429311843121013,10.667161168421366
2100,Medolla,44.849582601114001,11.073224346027692
2082,Il Frantoio,44.431223721874879,10.6570386136957
2067,Bazzano confine,44.503012057414843,11.064143673520032
2058,Stabilimento Fabbri,44.493386825388448,10.99432642249101
2056,Bettolino scuole,44.496545736328891,10.991289611173059
2054,Bettolino,44.502347703911902,10.986392545371899
1197,Ricco,44.431286749955099,10.847135215692251
1196,La Macchia,44.441789964387112,10.848986764264124
1195,Mirandola mercato,44.892269731171041,11.065323286767105
1194,Casa Ventura,44.447335335849061,10.85344727761017
155,Ganaceto 1,44.706348129569278,10.899920211462522
1187,Barozzi scuole,44.88190252584581,11.073093758215323
1186,Mirandola ex scuole,44.882785976934045,11.070048619436049
1184,Cittanova centro,44.647618288843262,10.843813019760651
1183,Banzuola nuova,44.458557025662586,10.855951817716077
1182,Caseificio,44.466044258040682,10.86772979985818
1181,Costaglie,44.456903482329579,10.800668662148926
2835,Statale 569,44.529570296851773,10.941986033147305
1173,Fontana,44.441310742257016,10.790940749224092
1169,Ligorzano,44.436307200251441,10.794255852175317
1168,Faeto bv,44.427061748801307,10.780429796489209
1167,La Croce,44.474714110117745,10.771681492394693
1166,San Donnino di Varana,44.468684505468516,10.763980900234127
1165,Casa Marchetti,44.466900879161649,10.768126127902566
1163,Croce Di Varana,44.462905308945402,10.767439797827345
1161,Varana,44.453666578846267,10.763490914842698
1159,La Salda,44.433647507272404,10.74807491565331
1157,Serramazzoni bv,44.436999639202376,10.755500466698214
1155,Palazzina,44.441684220537972,10.762891556353523
1154,Casa Leoni,44.446650337174397,10.765441331753649
1153,Pescarola bv,44.449335225433522,10.762392806996456
1152,La Pietra 2,44.440100836980633,10.713736033305192
1151,Bar Carbonara,44.431937817759795,10.752132442479986
1150,San Pellegrinetto,44.42917842066943,10.744197699222951
115,Cortile,44.794924040523675,10.96831511495574
1149,La Borra,44.428708032732985,10.739032651487387
1148,Casa Matteazzi bv,44.428787400240971,10.728469046543053
1147,Moncerato,44.434316782529464,10.726571454495959
1146,La Pietra,44.44120248612267,10.717110863686088
1145,Casa Bortolini,44.442300138105047,10.710558195445094
2842,Casoni di Ravarino,44.724087742287942,11.056524532382635
2843,Fiumalbo Zona Artigianale,44.17752879614185,10.644673842415886
1032,MARZAGLIA N,44.638826802595766,10.806401447947763
90,GOTTARDI,44.630556657478799,10.950129844638033
3058,Spervara bv,44.28024351778766,10.581644821330833
3254,Montorso,44.308235086937195,10.84442402507689
3617,Ospitale bv,44.207707905238586,10.796987524171525
2413,Zocca periferia,44.347652033836304,10.992186846580369
2410,La Vigna,44.480492406975429,10.994477950833431
2409,Brodano,44.493634490644872,11.017125217975643
2407,Ponte ferrovia,44.489423792001183,11.014942628066294
2406,Ospedale Vignola,44.482683312487239,11.011227208497649
2405,Pievina,44.475408576590141,10.988131101562931
2404,Il Gessiere,44.478725799674386,10.997687050101222
2403,Barozzi scuola,44.477579530751399,11.005556972409689
2402,Campiglio bv,44.481532227597064,10.988024765258999
2399,Due Ponti,44.482990030616875,10.980290262221722
2398,San Pietro,44.483825549496572,10.971025354249115
2397,Ca' Molza,44.487344873210091,10.961133328700907
2395,Cellini,44.534965160538263,11.008457772367651
239,Gargallo,44.744243854093156,10.859704068074464
2387,Arginetto,44.737029830581378,10.928269329550973
2378,Soliera,44.73998606166986,10.925929873761536
2376,Sestola medie,44.22624384860714,10.774038290528125
2374,Casa Benventi,44.41067209931947,10.787066241185586
2373,La Borra,44.405301115508863,10.784529101043473
2372,Botteghino,44.397016609614916,10.774834534880101
2371,Casa Casoni Pompeano,44.404350493572522,10.777367064811596
2370,Casa Nuova Pompeano,44.391481359878689,10.769519405265196
2369,bv Casa Storto,44.390361895458888,10.760985705974502
2363,Forno,44.37936381266023,10.815386890147543
2361,La Curva,44.395536298996653,10.759960623290482
2353,Hermitage,44.4278174474371,10.790252156844389
2352,Serramazzoni,44.422432358679735,10.789195841351374
2351,Savignano Trattoria,44.482845809226205,11.034069235199672
235,San Martino,44.692379617505544,10.836461948461356
2348,Savignano sul Panaro,44.479965181007664,11.034057129256006
2844,Fiumalbo Zona Artigianale,44.177251426526233,10.645179040633652
3407,Cuneo 2,44.768517246265631,10.867774630547752
34,Bastiglia,44.726411202512857,11.000236146602473
3393,G.Cesare 2,44.776875394855523,10.896468966704298
3391,Lucrezio 1,44.776796370985444,10.894722217330532
339,Casoni di Ravarino,44.723623785737864,11.056293425007585
3389,Lucrezio 2,44.775006317251794,10.894638384362905
3385,Israelitico,44.775284025187453,10.892549473277388
3381,Alghisi 1,44.777024056589028,10.888587158438328
338,Bastiglia statale,44.726978706737512,10.993524998209441
3379,Alghisi 2,44.778696959412336,10.889766605283519
3375,Peruzzi 1,44.782266250118518,10.877495833599763
3373,Peruzzi 2,44.783174562844657,10.874264099548034
337,Casa Tosatti,44.713647503642939,11.030235314438361
336,Casa Ghelfi,44.718213696632596,11.009259006682232
335,San Clemente,44.713496059025815,11.005699558603034
334,Albareto bv dell'Acero,44.691462519436847,10.967696277989488
333,Albareto Chiesa,44.689275307832297,10.966107821509128
3328,Leopardi,44.775699004344354,10.874489812910001
332,Nonantolana bv Mar Adriatico,44.656075059079384,10.950859123916757
331,Ponte Basso,44.675713429693651,10.93261814136746
3308,Fanti 1,44.784690134302132,10.885550631108551
3306,Fanti 2,44.785759794838235,10.882374698069151
330,Castelnuovo Rangone,44.549418840490269,10.938932261075362
329,Villa Nasi,44.681886394519466,10.937555243024274
3288,Govi,44.792163003505379,10.874555098393049
3286,Serretta,44.365268973934342,10.871488919758487
328,San Matteo 1,44.691207041620082,10.943721865503228
327,Villa Zuccoli,44.698572263033597,10.948398602901023
1436,Missano,44.351609092455149,10.951769003341733
1435,Molino,44.358863355712778,10.94714105406903
1433,Missano bv,44.36123316466773,10.946491725890379
1431,Gainazzo bv,44.364011892485145,10.941388208562984
1430,Salda,44.359839633081265,10.933131320233819
1429,Ponte,44.356521183453886,10.923322518797157
1427,Samone,44.365623675485033,10.948770667883398
1426,Samone distributore,44.36422668310319,10.950443647077172
1425,Samone bv,44.369406669665302,10.961283804480376
1424,Ginevra,44.36543508134821,10.969208310298695
1423,Giostra,44.360138727435391,10.972494310514803
1421,Derna,44.357014216080039,10.978249441671728
4729,Rodiano,44.441385623258213,10.913954069467311
4730,Piano,44.452569820317017,10.939393887457353
4731,Piano,44.452745895758248,10.93909806859917
7311,Morane,44.614997837589868,10.934938189575572
7312,Morane,44.615280385949895,10.934733312412867
7313,VACIGLIO,44.612692725048554,10.938151045778501
897,Sant'Anna bv,44.608564980131007,11.016387224772078
3892,Vaglio tabaccheria,44.292872464322244,10.725429099580726
6250,Albareto bv Nonatolana,44.654536101206602,10.943971676070017
2240,Boccaccio,44.369117823556735,10.836268540152361
4901,Europa,44.684463015525644,10.856717188604826
4911,San Martino in Rio,44.733660556708116,10.785621377621407
4903,Vittorio Veneto,44.770986767071044,10.782563153910054
4905,Cappuccini,44.768746882523494,10.786487562889636
4909,Ponte San Biagio,44.748645528716573,10.789316800652008
4913,Mora,44.723813296706339,10.80443608121317
4915,Osteriola di San Martino,44.707217478482463,10.810408824171498
4917,Rubiera bv,44.698472972024376,10.820801641004071
4919,San Martino,44.692348089864744,10.836183301698147
4921,Campogalliano,44.690617392279599,10.841353313353979
4929,Cavalcatoia,44.678027550289016,10.892281754600827
4928,Cavalcatoia,44.678205627503452,10.892943656271575
4918,Gramsci,44.6924457046985,10.838508555296873
4920,Campogalliano,44.690744988367229,10.841256396719366
4914,Rubiera bv,44.698588736899715,10.820881001156954
4912,Osteriola di San Martino,44.707159889565425,10.810634254780012
4910,Mora,44.723928473982483,10.804553308733896
4908,San Martino in Rio,44.733929311188398,10.785705427529102
2758,Samone distributore,44.36395760883255,10.950384517130784
2750,Samone bv,44.369180702031855,10.96081188246386
1743,Borra alta,44.288692280955843,10.706443555462604
1741,Borra,44.295460887134283,10.71016197524032
1739,Santoncina,44.299670250139386,10.714032449167709
1738,Casa Canovi,44.30413127463332,10.72150892524348
1737,Montemolino,44.316878207441299,10.661415495678794
1736,Casa Cinqui,44.315859713872634,10.652809775486286
1735,Casa Cecchino,44.311651478323121,10.646221746038975
1733,Abetone ceramica,44.30986651448741,10.642636077381521
1731,Boccassuolo,44.28335137952584,10.614964476228842
1729,Case Rosse,44.285756145596004,10.619980924953667
1728,Macinelle,44.292951572468034,10.622372313927471
1727,Le Lame,44.299104985858172,10.631542547938622
1726,Raggiola,44.30569601942824,10.63651438589449
811,Tressano fornace,44.539189286664154,10.758392940021464
1599,Mascagni bv Toscanini,44.331802413625823,10.832820626655554
233,MATTARELLA,44.622022427659751,10.92305800080217
1595,Borelli piazza,44.337022413036998,10.833485032002237
1593,Corsini cimitero,44.330649656208628,10.840122112034949
1760,Veggia,44.549188066386712,10.765593070128112
1589,Roncole,44.324536550992335,10.672730728120301
1587,Fagiolo,44.333285621054948,10.68814413845058
1585,Casa Borelli,44.330283482360102,10.709003981902395
1583,Torre di Cadignano,44.324265871038655,10.712854947339201
1581,Campo Cardero,44.332591866180564,10.604500010756897
1580,La Verna,44.337935079063151,10.605461121224824
1577,Fontana d'Arco,44.331923102766652,10.697462012589019
578,San Felice polo Industriale,44.832853673334462,11.121887613641327
1837,Ponte Lucenta,44.47826199886596,10.670692400891749
570,San Felice stadio,44.836160806931979,11.143871386756606
568,Vallicella,44.819919366603877,11.131455668515777
566,Granai,44.813353038772334,11.131656314551039
560,Rivara,44.840673547756687,11.170407273671492
56,San Pancrazio,44.675666576587908,10.898929658841594
2201,Canavaccia,44.261035055559887,10.975615820065116
5714,Poggetto,44.275335578187054,10.999702999852188
873,Bocca dei Ravari,44.300949107598079,11.015051856329247
5712,Bozza,44.273517232136193,10.99454145727011
5713,Casa Cristina,44.274346034898279,10.998115642986495
5710,Bettolino di Montese,44.268102992848718,10.986477412692718
5711,Canovetta,44.271051227461747,10.99140074218445
5707,L'Ombrina,44.291560071523634,11.00886466148059
5709,La Croce,44.280133429304563,11.004364696842005
5706,Serra,44.293636688843534,11.015679115682303
2189,Castel D'Aiano,44.280185054896663,11.001421485291633
6743,La Carovana scuole,44.624459274000884,10.910356282607317
554,Camil,44.878175954292672,11.139911480737775
552,Ponte San Pellegrino,44.874832083228789,11.147320377327047
550,Confine,44.873083974564302,11.155053852754389
55,Ponte Alto,44.667693974894512,10.898177257908181
540,Pavignane,44.862691789801865,11.179905272950188
1838,Bora,44.481524888360134,10.675953824129184
1840,Roteglia,44.484746643197887,10.682157826952196
2940,San Faustino,44.646339856922232,10.903609158984908
2937,Euclide,44.64561213788253,10.887797249965892
2931,Aristotele,44.64395636379777,10.885032393422016
293,Ospedale San Felice,44.836883027577102,11.137521579132288
2929,Formigina bv Archimede,44.646248994551378,10.90095799352803
2928,POLO LEONARDO 1,44.645655581470614,10.89006851599969
2921,D'Avia bv Aristotele,44.64377315798513,10.88194964136129
1842,Roteglia cimitero,44.487136838032974,10.690388428767065
2918,Corassori polisportiva,44.644945947768392,10.89540478297616
2917,Vigili del Fuoco,44.644164131130054,10.899654102790004
1844,Casa Nuova,44.490407185630808,10.698720719628103
1846,Cavriana,44.496417918214597,10.715183899539213
2912,Borelle bv Corletto,44.633155771963104,10.847439738981402
1835,Villabianca,44.50639086271272,10.726068967089407
291,San Felice stadio,44.836125060877414,11.143857408906092
2909,Borelle 115,44.633686356341663,10.859673461133021
1850,Castellarano,44.511574347998135,10.732147816190064
2907,COGNENTO,44.632840721908913,10.871207558325137
1852,Villaggio,44.522643287749133,10.739535340642577
2905,Beltrami,44.634211286769293,10.872171988141901
2904,Campagna,44.637931039599017,10.876452488695657
2903,Contorno,44.635820700329461,10.870647730604459
2901,Formigina bv Cannizzaro,44.637874488114328,10.894594479900213
1856,Tressano,44.531633147601688,10.749796022901885
2898,Formigina bv Lagrange,44.639888692141653,10.895820084377259
652,Redu,44.655865303220139,11.071112437702622
651,Casinazzo,44.650675335180118,11.070372745526498
649,Recovato Chiesa,44.641903831248399,11.065079884204163
648,Recovato Mulino,44.637416899934742,11.062298095653933
647,Rondine,44.632642450289062,11.059481361101934
646,Al Ponte,44.626541024047548,11.055861857660224
645,La Mela,44.623510032133339,11.054204361070079
644,Pioppa,44.61511591853219,11.049408774315454
643,Panzano,44.620787562593065,11.04035636765089
204,Finzi bv Massarenti,44.662326461960348,10.935831215399736
1312,Rastellino Mulino,44.633477860591235,11.098632468675913
1310,Riolo,44.616382917688156,11.088286127709072
1308,Riolo Mulino,44.609916096393754,11.084512975189714
1302,Ceramica,44.373843869831546,10.82731622061125
130,Ganaceto,44.708376780217584,10.899191289135585
194,Finzi bv Europa,44.660271741631185,10.933303188662608
1270,Redu,44.656109192717729,11.070074279939931
1268,Casinazzo,44.650587883401123,11.070230908007332
1267,Recovato Chiesa,44.641817056012471,11.064900272146208
1266,Recovato Mulino,44.637865139487083,11.062402239772416
1265,Rondine,44.633036713231057,11.059583563721208
1264,Al Ponte,44.628630596060951,11.056805503516038
1263,La Mela,44.623607025713603,11.053817011921739
1262,Pioppa,44.615235363690573,11.04927433644867
1260,Panzano,44.620920938734926,11.040449275449857
1252,Panzano bv 1,44.625047796725902,11.03872823201027
1250,Gaggio,44.635200676634909,11.012959987269046
1244,Olmo bv,44.629798125243127,11.00944495686478
1240,Bottega Nuova,44.620724652349182,11.007341941259542
1238,Panzano bv,44.617314843711689,11.012845868812418
1237,Sant'Anna bv,44.607886618482297,11.017586151571869
1236,Madonna degli Angeli,44.602343157963659,11.031683642170474
1235,Ospedale Castelfranco,44.597277284547175,11.046160624702194
189,Finzi bv Canaletto,44.659035801409026,10.931862035649875
1761,Zocca USL,44.342620848618061,10.997260237028922
188,Finzi bv Canaletto,44.659235836063189,10.931212791072634
1758,Zocca USL,44.34320217977875,10.9979950590889
326,Monumento,44.706012328307985,10.955528020872753
325,Bastiglia Cantone,44.715844012659353,10.970643771124093
1765,Zocca Circonvallazione,44.347091028317095,10.995442354521451
324,Bastiglia bv,44.729377928407821,10.994807150051988
187,Mar Tirreno asilo,44.65298286506782,10.946896175462429
141,Freto,44.671089400504805,10.891576498610569
508,CARPI TERMINAL BUS,44.78162930451689,10.875718235308037
3232,Lama 2,44.769233504367577,10.882810720479261
323,Bar Belfiore,44.746129859306684,11.001055265964006
3227,Remesina 2,44.79476601484032,10.880493003522913
3200,Polinago,44.344316304065558,10.722960878753694
3020,Ponte Brandola,44.337499849171529,10.739080996211516
1615,Valle Verde,44.340059068132383,10.732407680292118
3220,Renno bv,44.308089247860593,10.819281265823429
598,Finale Emilia Autostazione,44.832111355163313,11.289358730549397
618,Finale Emilia Autostazione,44.832172798908324,11.28943707001881
621,Finale Emilia Autostazione,44.832225501150738,11.28950241242409
638,Bottega Nuova,44.620768834733632,11.00687708268055
694,Sant'Adriano frigo,44.538964915795852,11.036262035450944
626,Finale Emilia Autostazione,44.832278203352864,11.289567754948997
1766,Indipendenza ex Questura,44.537071229980519,10.775422111839646
661,Finale Emilia Autostazione,44.832339900507982,11.28963345393411
3478,Castellano Boccasuolo,44.27514433848085,10.607045733185856
3476,Casa Mingucci,44.28267648200945,10.613667680093114
3473,Ariosto,44.784478706871674,10.889626638217701
6312,Casa dello Studente,44.636335927254891,10.950146956276551
3466,Pronto Soccorso,44.787343469176754,10.879139484622712
3464,Grimelli,44.789651397156781,10.874006030350586
3460,Raggia,44.244995451009878,10.526832487903867
3452,Casa Rurale,44.249073616875457,10.528866896564157
3450,Pietravolta,44.25903894034365,10.531630637271411
3448,Monte Vecchio,44.272311578266795,10.5435031615686
3446,Monte Nuovo,44.27779843207999,10.54453655050629
3440,Ca' Stefani,44.267317311095979,10.503504755445647
3434,Ca' Ferioli,44.26645166970652,10.507704939468764
3432,Chiesa,44.266525247923731,10.510312844101701
3430,Fontanaluccia,44.264886581831014,10.515758409231097
3428,Fontanaluccia garage,44.263984273492675,10.52335249644214
4906,Ponte San Biagio,44.74952960536914,10.78862400960216
4904,Cappuccini,44.768881258228568,10.786529617743234
4902,Vittorio Veneto,44.771034837429617,10.782943761105354
4900,Correggio,44.7757214523144,10.779132123947075
4930,Dogana,44.687616000361878,10.853814521312257
3370,La Trappola,44.319160323617929,11.010546402654722
2786,Ospedale Sassuolo,44.532747286251457,10.793452165236598
2712,Portichetto,44.367174672960566,10.994505338466432
1832,Marani,44.514478738797592,11.05430688135529
1834,Perla Verde,44.511139948990234,11.052239455515936
1866,Casa Sarto,44.482282100715913,10.705677793602078
1868,Fredda,44.487386988559351,10.710467196792106
2080,La Volta,44.431569847484454,10.653656069538092
2134,La Pietra 2,44.440440765818735,10.713281028304598
2128,La Borra,44.428399973837557,10.739161712905659
2130,San Pellegrinetto,44.429523630266871,10.743994385473499
2249,Saltino poste,44.423809978151162,10.644894734429457
2250,Saltino,44.419153537978382,10.639400377780161
1226,Saltino,44.419192584121475,10.639815999366402
1227,Casa Aloia,44.413259109916133,10.637351614937401
3300,Prignano Poste,44.43804018606982,10.693759379794727
3301,Prignano,44.437210177772805,10.691448497096435
3700,San Felice sul Panaro,44.838522589133753,11.145616461638438
3699,Casarino,44.843451646718222,11.140560980484393
2097,Rovinaccia 1,44.266394422701005,10.786346399881943
2096,Falegnameria,44.265900887406545,10.783362127921198
2095,Castellaro,44.259828176776786,10.778468161942007
2094,La Teggia,44.25756984532272,10.774905032692576
2093,Bacconi,44.247855407519758,10.765043729232403
2092,Tabina bv,44.245635253750052,10.768884957001424
2091,Le Macchie,44.244793903164833,10.774370427522967
2090,Stabilimento Amica,44.24233807978861,10.782912945812186
2089,Ponte Scoltenna,44.26636723289981,10.861882141827211
2088,Santa Croce,44.217552177211296,10.803020466979895
2087,Ospitale bv,44.207853066268953,10.796916840171354
2085,Cartiera,44.254130375327229,10.864752697695023
2084,Casa Mazzini,44.246517104659432,10.85515616773613
2083,Ca' Ivo,44.236087197604036,10.840966003059986
2081,Casa Pilino,44.227936317357319,10.818687921448259
2079,Rocchetta Sandri bv,44.233036247472434,10.82688401895058
2078,Trentino bv,44.239938807952399,10.830428851410327
2077,Ca' Ciocchi,44.243475239657819,10.833343916977467
2076,San Cesario,44.562282193459332,11.034708202099468
2075,Rocchetta Sandri,44.251607401069343,10.838231133952954
2074,Casa Nuova,44.256742592626892,10.834094461670766
2073,Mulino Rocchetta,44.258509161630279,10.830604196976468
2072,Voltata Bagni,44.261452854674097,10.821049141107416
2071,Sasso Bianco,44.260313458685509,10.81401103942545
2070,Burgone,44.257068464165087,10.810854677348519
2068,Chiesa bv,44.254553831419308,10.799641544734818
2055,Casa Doddi,44.251773198129904,10.796700844255263
2051,Vesale bv,44.241769397521622,10.78646500658729
2049,Vivaio,44.231408837827814,10.769573067949286
2047,Dogana,44.231538255962271,10.752422513128272
2045,Roncoscaglia,44.240221592121728,10.745667250007006
2043,Casa Vernese,44.273773947296931,10.755181208656305
2042,Il Piano,44.26733711318996,10.75164432755782
6741,Campagna,44.638226926882417,10.876525071863952
6739,Guareschi 2,44.629715290254843,10.868005812998504
6733,Formigina bv Cannizzaro,44.637942285939609,10.8948488597067
6731,Formigina bv Lagrange,44.63959114482639,10.895848218603781
6729,Formigina bv Corassori,44.642298334706553,10.898168310699468
6728,Galilei Forum,44.640915910874014,10.889246281958702
6727,Galilei bv Cartesio,44.643213922005174,10.89073318477439
6725,Da Vinci bv Newton,44.644487059424137,10.893763137375872
6723,Da Vinci bv Curie,44.643735030126336,10.89730726337606
6722,GALILEI,44.639540289293265,10.888596394051984
6721,Istituto Guarini,44.642144443269892,10.900924782737619
672,Bar Belfiore,44.744854153380821,11.000392276171064
6717,Marconi bv Corassori,44.64074192240809,10.906212680935203
6711,Palestra San Faustino,44.64190701128561,10.908142270053959
684,Bastiglia Cantone,44.715988044781724,10.969600737483384
6841,Barchetta bv Giglio,44.660178139348652,10.892684726971574
6837,Emilia Ovest Globo,44.655746366594173,10.879764045546072
6835,Emilia Ovest Orlandi,44.65446656069242,10.876569629961805
6833,Centro Senada,44.657891684499305,10.887237194057628
6830,Nazionale per Carpi,44.658816313721019,10.899338000533922
6829,Emilia Ovest Hotel Eden,44.658394556001866,10.894379900702088
6823,Emilia Ovest bv Ruffini,44.652765782454878,10.91126042640132
6821,Caserma Pisacane,44.651595912273805,10.913920872643732
6819,Palazzo Europa,44.650735378877826,10.915847330338028
6818,Emilio Po Panini,44.649391506251078,10.899295115049719
6816,Emilio Po bv De Gavasseti,44.65123301752508,10.9006163889871
7033,Palladio,44.80096516998109,10.882881869932577
3623,La Grande,44.717423011063623,11.064671943642594
3627,Casoni di Ravarino,44.722693691197492,11.055452333193294
3557,Brunelleschi,44.802698046682515,10.882065782481416
3563,Artigianato,44.785676040226548,10.857810910236939
3469,Papotti,44.760025263899635,10.922716716758796
3991,La Sbrugna,44.325704036581463,10.828542133852784
3815,Rodiano 1,44.441761815432145,10.917824216905744
3816,Rodiano 1,44.44194366918618,10.917717071079416
3786,Emilia Romagna 1,44.562697908628614,10.800945591811836
3782,Ca Marta,44.560272060145152,10.7891854979851
3783,Ca Marta,44.560195340590546,10.789485349986842
3784,Regina Pacis,44.554506683511015,10.785974441800882
3785,Regina Pacis,44.554459920556354,10.786086326416703
3787,Emilia Romagna 1,44.562527936110804,10.800877384656506
3596,Maestra di Redu,44.673207565956176,11.048957899350786
3980,Nonantola Terminal,44.679851421496515,11.03839136810503
3597,Maestra di Redu,44.673164166582097,11.048868055618856
3817,Ex Ferrovia,44.657450390168506,10.929791314840461
3818,Ex Ferrovia,44.657480152144444,10.929628334972863
3528,Chiocciola,44.253927573476119,10.932187416638145
3395,Refice parco,44.530556402960094,10.782737628068304
3988,Zocca,44.346371228941649,10.995417925648756
4617,Sp25 Civ. 1288,44.366537595427324,10.989739737283378
4618,Sp25 Civ. 1288,44.366382452252694,10.989859985017032
4294,Montecreto forno,44.248134660269479,10.716004135266038
3821,Barigazzo 1,44.263747658425196,10.64865500414532
3822,Barigazzo 1,44.264020852549884,10.649063550390606
2259,Sestola cimitero,44.232707925118319,10.770563658493403
2263,Sestola cimitero,44.232771499099869,10.770527999925958
4936,Carducci,44.778684675197191,10.885064397174157
3823,Le Regine,44.132158878256682,10.685640451294351
6170,Nonantolana 1010,44.66054705846549,10.967772530425099
6168,Raimondo della Costa 1,44.65656280006332,10.96859628984234
4937,Gramsci,44.779086290576309,10.886910175800057
6290,Fanti FS,44.656100417450446,10.9281699517954
6270,Fanti FS,44.656266782357271,10.927380872386856
2060,Lugo,44.435287553817716,10.653685550176537
2896,Formigina bv Corassori,44.642427024157875,10.898008583457973
2895,Galilei Forum,44.641086865147713,10.889251831831785
2894,Galilei bv Cartesio,44.643420448952781,10.89076511496692
2892,Da Vinci bv Newton,44.644679143961376,10.893580237401091
2891,Da Vinci bv Curie,44.643488753213681,10.896958767609016
289,Vallicella,44.819968386045439,11.131723089231725
2887,Istituto Guarini,44.642182974786628,10.900232515625706
2061,Casa Geti,44.441280179028894,10.650172714321563
2062,Poggio del Bue,44.45251974952776,10.652374566089488
2063,Muraglione,44.463314379635278,10.657317802299856
2065,La Pesa,44.46635502846172,10.66057191112445
3009,Sigonio,44.768607765780665,10.890170431901518
6477,Viterbo bv Vaciglio,44.623638489063183,10.940872572818579
6478,Vaciglio bv Viterbo,44.624217319158234,10.941244824938487
6139,Piazza Roma,44.648375989312733,10.928191371427056
6104,Canalgrande bv Emilia Est,44.645556938359427,10.929333756737481
6783,POLO LEONARDO,44.646163173817122,10.889315768707409
6618,ZODIACO,44.628606570809268,10.894860157405375
6580,Forli,44.621770639255466,10.915007610551225
6102,Emilia centro Posta,44.645388489884063,10.928647217614849
6948,Anderlini centro commerciale,44.661000886320664,10.927449472800294
6267,Albareto bv Sacerdoti,44.668077717041733,10.947023136028537
6740,Contorno,44.636250642314387,10.871329787056199
6742,Beltrami,44.634521315144518,10.870832914117912
3625,Tabina bv,44.245835554654121,10.768740667103264
3104,Pievepelago Autostazione,44.208234681560732,10.617190758133008
3101,Hotel Pineta,44.209337215970976,10.609247729979792
310,Bisighini bv,44.829338586362496,11.002010513207139
3098,Aradonica,44.307841174069061,10.582034854860639
3096,Rimessa,44.314769612554308,10.587500042333122
3094,Tolara,44.317999575027827,10.592176753653593
3092,La Serra,44.319162950434148,10.601049028089733
3090,Serradimigni,44.322717005248265,10.60055628665036
3084,Muschioso,44.278728744344015,10.52420969004198
3082,Vallorsara,44.282547483343023,10.53150202063058
3080,Rovolo,44.29367532268342,10.519356808202497
3072,Mulino,44.305728925294936,10.522162677992053
3070,Romanoro,44.309471302273167,10.523726375773863
3068,San Scolastica,44.311684886558858,10.527181612721098
3066,Lasetta,44.324488184624002,10.536493384982005
3062,Spervara di Sopra,44.281987056255112,10.580563708539026
3060,Spervara,44.282184140715977,10.581935012114196
3054,Case Bruciate,44.283946052445842,10.575615717862098
3052,Ca' Facchini,44.284010082766805,10.570967810149662
3050,Ca' di Giannasi,44.290777603127843,10.567889371440744
3047,Casa Tocco,44.314646495028001,10.911671685190028
3046,Campi nuovi,44.32002541098317,10.915182111400327
3045,Casa Calcina,44.317895699810741,10.90903099400092
6446,Giacinti chiesa,44.600145441277796,10.979995609635727
6444,Giacinti conad,44.601813801607335,10.975150582645123
2053,Vesale bv,44.241929424815588,10.786018998007002
2604,Montese 1,44.269441080199108,10.94324561301805
612,CITTANOVA,44.64717063700737,10.84366011666838
611,Emilia Ovest Grandemilia,44.646739272481362,10.85362139562397
61,Remesina 1,44.792377388867351,10.879037400450551
609,Emilia Ovest Bruciata,44.650676660387482,10.867228438155937
608,Passo Vecchio,44.787837224636,11.148654490886061
607,Ghirone,44.790488902411049,11.160787937705139
606,Hotel Paradiso,44.803724837490982,11.190402988880434
605,Ca' De Coppi,44.798270450164779,11.178121952463439
604,Cantone,44.808456229190568,11.203227891322181
601,Trattoria Marina,44.812630622854655,11.215919746951
599,Ca' Bianca,44.812798558032874,11.221174563146942
597,Ca' Bianca scuole,44.813019688175068,11.229226389655761
596,San Luigi,44.819928435249302,11.241888021010828
595,Ristorante Nuova Luce,44.828766042673429,11.242015695370682
594,Casette,44.838005243603249,11.258303281208383
303,MODENA AUTOSTAZIONE,44.651292374492229,10.919132061283236
592,Canaletto scuole,44.837911373958491,11.249379810076881
591,Canaletto,44.840264517014646,11.240500636273316
589,Canalazzo,44.8427475931095,11.235067448269398
588,Barbieri,44.856035689188317,11.207725421431146
587,Marsala,44.84699183889304,11.221476543512646
586,Massa Finalese,44.851789541605271,11.213156734854429
585,Massa Finalese stazione,44.845380309992834,11.203370196608056
583,Monte di Sopra,44.214440397606026,10.796528865700083
4795,Casa Cantoniera,44.147669236253115,10.653759747846738
4792,La Fiorita,44.15479688462316,10.650845039664373
342,MODENA AUTOSTAZIONE,44.651373986913214,10.919096919015738
3426,Casa Becchelli,44.267591975816529,10.528256898197547
3422,Solgara,44.271453211621015,10.532366578644284
3420,Fontanaluccia bv,44.274658216649193,10.528339817895048
6314,Casa dello Studente,44.63569973033141,10.952079903404615
3400,Ravarino,44.724097099954456,11.099041139409341
340,Cavezzo stazione,44.832826165636781,11.050989853543957
3388,Mezzuola,44.308179843636189,11.012929688593212
183,Santa Caterina bv Montefiorino,44.649456430262454,10.951494722033081
182,Santa Caterina bv Montefiorino,44.649720151238633,10.951339623000916
180,Ciro Menotti,44.653076639190765,10.942977007404716
1981,Gorzano 2,44.516662942379952,10.877801959541253
1980,Gorzano 1,44.514462594507471,10.879668894613607
1960,Torre Maina chiesa,44.498289008826575,10.87394153883263
1945,Torre Delle Oche,44.513254944694637,10.836600644411782
1944,San Venanzio svolta,44.508862440480527,10.863775478695475
1942,Cai,44.503889418991818,10.858471877787313
1940,San Venanzio,44.496524765147676,10.855181382362792
1934,Il Poggio,44.490157190885157,10.853130674099516
1933,Cavana,44.489289304013511,10.845016466684413
1932,Soprataglio,44.486022180501479,10.837707487852924
1930,Montagnana,44.478402276404822,10.828402216856199
1318,Casa Giannini,44.377111088388638,10.915260109502489
1317,Festa casa cantoniera,44.386472174293189,10.913757591037054
1316,Casa Bonetti,44.402319059998071,10.921143464763295
1314,Casa Rossa,44.401678766684554,10.893181552089077
1313,Coscogno confine,44.396671463471726,10.883489530619659
1311,Chiesa,44.393806839443293,10.874294477618779
1309,Coscogno,44.391855370646752,10.865367894374726
1307,Casa Marconi,44.388997531794956,10.854002682186563
1306,Casa Golini,44.388536089730408,10.850259297833079
1305,La Guardia,44.387701484907986,10.843415768464927
1304,La Villa,44.385161476255959,10.832865819094776
1301,Chiozza,44.376075122347324,10.826281032122875
13,Emilia Ovest bv Autodromo,44.654251198350856,10.908030067353989
1299,Ceramica,44.3738744783752,10.827091240447542
1297,Casa Rossa,44.373417615615672,10.803730872056047
1296,Il Prato,44.375795683133141,10.80763231730163
1295,Casa Mazzanti,44.378167906013267,10.810190760864739
1294,Forno,44.379371192258738,10.814922658301425
1293,Lo Stallone,44.380439701094367,10.819060574065784
1292,Madonna Baldaccini,44.380609061115969,10.821425827968875
1289,Casa Bosi,44.387521680035839,10.814170196888734
1288,La Monta,44.390870154065652,10.807393288506976
1287,Casa Fontanazzi,44.395235757023222,10.800031550028805
1286,Riotorto Selva,44.402115265897052,10.80222668570071
1285,San Dalmazio,44.414919852559976,10.849910624960293
1284,Crocetta bv,44.419398247549552,10.852438567894421
1281,Casa Rotonda,44.409152672499047,10.836302836967477
1280,Casa Cantoniera,44.410815898767602,10.835325000235507
1276,Spinara,44.416790419932525,10.796472400378773
1275,Casa Quattrini,44.412447704574618,10.794970363881317
1274,Casa nuova Gombola,44.371950678156225,10.723846422521383
1273,Piana,44.376394393211896,10.72528227034525
1272,Torella,44.377001562070788,10.722036459401439
1271,Casa Cappelli,44.380022686192142,10.72109567910452
1269,Gombola,44.385630679318311,10.725917692189066
1261,Gombola poste,44.386904252570403,10.725641260836509
126,Ponte Nuovo,44.814932910846906,11.021039070756251
1259,Casa Giovannetti,44.394810052104731,10.723764189212082
1258,Ponte Cervaro,44.401384762251261,10.724183322695071
1257,Casa Matteazzi,44.403658814753648,10.713060792502613
1256,Talbignano rimessa,44.404270032462406,10.707716233907048
1255,Talbignano,44.407245058787993,10.697780769769087
1254,Talbignano poste,44.407965174534091,10.693544067945961
1253,Pioppa Talbignano,44.414599560759008,10.685068819466002
1251,Casa Lugari,44.417104033448744,10.681900008551464
430,Fossa,44.923096477992871,11.034535250609592
422,Fossa Mulino,44.923050358112967,11.027513937247923
4214,Casa Benventi,44.410179147868448,10.786925630235402
4213,La Borra,44.405036627833951,10.784747110132249
4211,Botteghino,44.397023484893872,10.775550477794102
4210,Casa Casoni Pompeano,44.40395632667159,10.77781978118561
4209,Casa Nuova Pompeano,44.390933418237942,10.769440112874381
1881,Crocette,44.352024949452094,10.848883941793078
2574,Fontanelli,44.651601841275486,10.925347178166431
2573,Berengario Universita,44.650035224804078,10.92375675599394
2572,Ospedale Sant'Agostino,44.649389539246478,10.920935736055709
2571,Sant'Agostino museo,44.648237197966054,10.922007445049328
355,San Michele,44.772248229850675,11.074030987861024
3545,Bazzano FP,44.50831999352971,11.077742003295384
3541,Magazzino,44.518661927928903,11.057473803690161
354,Gorghetto,44.768930261268999,11.068857344693797
3539,Magazzino bv,44.51743562358407,11.065558974700902
3537,Bazzano zuccherificio,44.524511129811344,11.062600144876846
3529,Castel D'Aiano,44.280545396511378,11.001408659320509
351,Casa Baraldi,44.74772666088554,11.045058850787752
35,Lesignana,44.68489788687085,10.892732621108809
349,Villaggio Artigiano,44.737546026470312,11.028861450252279
3485,Rubiera,44.653910014684051,10.780346496812799
3482,Peruzzi 3,44.784176693953825,10.870795127074437
347,Ponte Vecchio,44.735038488352608,11.038233405172329
3465,Remesina 4,44.799605141419619,10.883469813040625
3462,Donatori,44.788128359110573,10.875751800435623
3459,Cabassi,44.783799069535078,10.888264578525472
1575,Casa Gigli,44.345469436621279,10.618927667820012
1574,Pianellino,44.351103956438038,10.620287316112414
1573,Casola,44.338343754641983,10.619873061060529
1572,Sordomuti istituto,44.33586840229767,10.616029240150729
1571,Zona B,44.285741557724812,10.5857402831566
1569,Ronchi,44.293573591937736,10.592895300659844
1568,Sassatella,44.299177752334771,10.595165412220386
1567,Il Sasso,44.309294303956001,10.602435686457053
1566,Lago bv,44.317338521946255,10.609789776594427
1565,Lago,44.321095324314463,10.610883229567365
1564,Mulino Calicetti,44.328244034694983,10.611492811849436
1563,Pianezzo,44.339026875172443,10.626916728021277
1562,Caribe,44.351853133738416,10.624586530704747
1561,Casa Barbati,44.366842766655964,10.66645459371269
1417,Zocchetta,44.362849983755467,10.987468918932615
1416,Campo Sportivo,44.373624785451781,11.004552327442592
1414,Portichetto,44.366971469947707,10.99479964732453
1412,Casetta di Sopra,44.370063511875571,11.00074082802284
1411,Braglie 518,44.370527996892513,10.988582128294709
1409,Braglie 1265,44.375749250787038,10.987051797377843
4051,Legnago,44.540903531962812,10.773864449835814
2738,Vignolese Punta,44.632928651024834,10.938774261516597
2735,Vaciglio Sacra Famiglia,44.626508000082346,10.941006043715587
2733,Ventimiglia bv Torino,44.628094015325956,10.936671856598492
2732,Ventimiglia bv Albenga,44.629673255839229,10.93644704091245
2731,San Remo,44.630976804737415,10.936553437346927
273,Baia,44.93764001319461,11.225769149501788
2729,La Spezia bv Oneglia,44.631674516918658,10.936286680379492
2728,La Spezia bv Vignolese,44.632808864086492,10.937345621691174
2727,Vignolese Gambero,44.635308948776022,10.934844180512242
2726,Moreali bv Dei Bononcini,44.638737633115078,10.935979478978448
2725,Moreali bv Cucchiari,44.637564826157032,10.937718272923801
2724,Marzabotto,44.635767949749109,10.938566239175094
2722,Moreali bv Valdrighi,44.639661507261863,10.934585394354816
2721,Moreali bv Sabatini,44.640668901883231,10.933042729678826
2719,Trento Trieste,44.642008192544175,10.93263327550264
2718,Emilia Est bv Fusco,44.632327037124661,10.961346717309219
2716,Speri autolavaggio,44.633807550659164,10.953756313908068
2715,Saffi,44.631886288729739,10.952922783458934
2713,Divisione Acqui Questura,44.645437164090701,10.949632306476177
2711,Casetta di sopra,44.369988235367792,11.000926528366648
271,Corte Reggiani,44.93534939000422,11.220433742343474
2704,Toscanini,44.636931200885073,10.954819407169007
2703,MARINUZZI,44.630980148956503,10.970554966564297
2699,Caduti sul Lavoro bv Wagner,44.631957950684217,10.971798370629438
2698,Caduti sul Lavoro bv Romano,44.635018069854894,10.973402386032783
2697,Marinuzzi bv Scarlatti,44.632616268362561,10.966512921651786
2696,Respighi,44.633728688219293,10.963600296926723
2693,Direzionale Toscanini,44.634792720841567,10.954054148926717
2691,Gazzotti bv Caduti sul Lavoro,44.630580513052116,10.971802142587848
2687,Resistenza,44.638981286877915,10.967017989637286
2685,Quattroponti,44.553314967676201,10.794801585786441
8307,Remesina 3,44.796501351107224,10.881712554440826
830,Loreto,44.741153663593927,11.089869401630937
828,Case Nuove,44.733704595643317,11.10772422859325
826,Segheria,44.72893064103183,11.105921704867008
824,Ravarino Dante,44.724506719162932,11.103197756710873
822,Loberso,44.726429203071255,11.086737589768125
820,Rami,44.730009339781269,11.079983766577838
810,Rocchetta bv,44.726353123246412,11.065179133841708
3044,Monticello,44.321148806862453,10.908308843265264
3043,Gneda,44.325949898591851,10.9108474387531
3042,Campidello,44.328030176823837,10.908657441706085
3041,Verica Casa Nuova,44.325427270067713,10.906027097460358
3040,Verica,44.327470438148573,10.904977057932454
3038,Verica Stazione,44.324809434999743,10.897717283193568
3036,Casa Dell'Oste,44.329315197996713,10.895830766415012
3030,Sassoguidano bv,44.32877317193622,10.887247011906117
3026,Casa Barduzzi,44.35198989613594,10.768104478063862
3025,Capanna,44.352470179157024,10.762660877674501
3024,Casina,44.350485437380357,10.761760736510194
3023,Ponte Casina,44.346022563161398,10.761012273246051
3022,Piangonato,44.343562617397687,10.750613801151713
3021,Casa Bortolani,44.34494079229674,10.742324533558035
3019,Cerreto di Polinago,44.343922688959346,10.73883183620635
3018,Casa del Dottore,44.339741840742384,10.73491978446995
3017,Valle Verde,44.339897279066456,10.732390370247614
3016,Pissa Segala,44.342582236392687,10.73106440630651
3015,Ca' del Merlo,44.351622171377997,10.726236453805706
3014,Casa Marini,44.357951682968178,10.723222487704119
3013,Casa Giannini,44.36297850454735,10.727774747253315
3010,Casa Cabri,44.3705080780706,10.729941578129052
3002,Corsini cimitero,44.330601836160689,10.840296212043473
3000,Pavullo Autostazione,44.335049013208241,10.833034672854113
30,GARIBALDI,44.644134690199557,10.93145551518346
2996,Roncole,44.324635354996182,10.672131553937081
2994,Molino Grillo,44.327336366299853,10.675193274306514
2992,Fagiolo,44.333690579100697,10.688155758950034
2990,Fontana D'Arco,44.3317436259182,10.696817150614343
2988,Casa Borelli,44.330131062642522,10.708961927171888
2986,Cadignano,44.32831918237386,10.715719653227911
2984,Torre di Cadignano,44.324141201658499,10.712763530329305
2974,Lavacchio,44.327032042766817,10.601651912207361
2972,Campo Cardero,44.332556939133703,10.605063493445227
2970,La Verna,44.337684336522656,10.606006217968702
2968,Casa Bocchi,44.340754875027429,10.609803305154239
2966,Traghetti,44.343215012460682,10.614738211376419
2964,Casa Gigli,44.345274404485721,10.619348853006484
2962,Pianellino,44.351076880314935,10.620926464641714
2960,Casola,44.338626114390451,10.619642495378759
296,Baraccone,44.827386571816014,11.000386977498813
2959,Sordomuti istituto,44.336483022342868,10.615857967197496
2958,Zona B,44.285853379751124,10.585467564895804
2957,Ronchi,44.293846724365714,10.592677059947173
2956,Sassatella,44.299300346792819,10.594767582889357
6425,Vaciglio Sacra Famiglia,44.626789916443705,10.940838955020887
6421,Ventimiglia bv Torino,44.628050310847385,10.936594763835361
6419,Ventimiglia bv Albenga,44.629878485456544,10.93655472251357
6417,San Remo,44.630895401036476,10.93657594360589
6415,La Spezia bv Oneglia,44.631811400580055,10.936177767664507
473,Tenuta Delfina,44.850677793293457,10.936007369827005
4716,Supermarket Frigo,44.33482052386681,11.008259346780326
4714,Casa Bognino,44.333264587612192,11.005609806093728
4712,Cava bv,44.335717149023431,10.998204896633066
4710,Le Coste,44.339571776636227,10.996065318482588
4702,Zocca periferia,44.347707821061682,10.993117153767237
470,Rovereto,44.841723641520545,10.955901630949281
344,MODENA AUTOSTAZIONE,44.651473594165743,10.919062370282155
346,MODENA AUTOSTAZIONE,44.651573201408219,10.919027821435664
350,MODENA AUTOSTAZIONE,44.651602100439028,10.91891527035901
465,Caselle,44.831256131502805,10.953156436075815
464,Rovereto Industriale est,44.822526158908637,10.950926265729652
463,Guastalla 2,44.794788540516073,10.868154376003984
462,Guastalla,44.804057252504997,10.845123912405544
4616,La Vigna,44.480464317421216,10.99453986662315
4614,Brodano,44.495181998904037,11.018197386390765
4613,Garofano,44.460667221308285,11.000728900005353
4610,Pievina,44.474730249456307,10.987793726426103
461,Guastalla 1,44.798309168749007,10.858178455685545
4608,Il Gessiere,44.478744470431295,10.997134420207747
4603,Barozzi scuola,44.477454177539919,11.006030487966417
4602,Campiglio bv,44.481422701832322,10.987593500121228
4600,Vignola Autostazione,44.485486091700842,10.996182401578551
460,Roma bv,44.813988258342064,10.836651007929905
4598,Due Ponti,44.482816246885733,10.980447857805711
4596,San Pietro,44.483460228577229,10.971327430561223
4594,Ca' Molza,44.487332706906138,10.960793366000617
458,Migliarina chiesa,44.804625114740865,10.837264223221467
456,Lunga,44.808856676525359,10.835552300809937
455,Migliarina,44.81414382546793,10.842081519403536
454,Budrione scuole,44.81581034234501,10.864748116866338
4504,Cellini,44.534995837760661,11.008760900049893
4500,Spilamberto,44.530900760790075,11.02500637817398
450,Budrione,44.815257258329872,10.857812232889684
444,Pico carrozzeria,44.900749544244178,11.064335049255284
4402,Arginetto,44.737710635435931,10.928468789033015
4400,Soliera,44.7398866660576,10.925951834460014
438,Ponte Santa Maria,44.896481026683929,11.038370849489224
436,Ponte Rovere,44.899664389412067,11.028958712929038
435,Magonza caseificio,44.893347553424512,11.018655651822256
434,Boschina caseificio,44.907690582703992,11.05282811053937
432,Verzola bv,44.914673483081245,11.042941551484892
431,Sabbioncello,44.892748754476301,11.005641177045298
1458,Ponte Santa Lucia,44.580472407283665,10.910401167187546
1456,San Martino del Mugnano,44.588428711815318,10.914277458764593
1454,Santa Maria Mugnano,44.594955885755368,10.92336173595519
3051,Bollitora 3,44.774731212518759,10.870376288784213
1450,Portile centro,44.579328472646246,10.938742368778316
1448,Cabianca,44.566451345191929,10.936828440776736
1725,La Ferrara,44.309891330157946,10.636518144016696
1724,Pianacci,44.312714094794643,10.641825273583505
1719,Sant'Anna bv,44.201127563609766,10.614906268366386
1717,Pievepelago scuole,44.204001541692072,10.616674415279084
1715,Hotel Pineta,44.209122459098175,10.609154263818208
1713,Aradonica,44.308288722430511,10.582222408833596
1711,Rimessa,44.314603499298997,10.587144465895948
1709,Tolara,44.318072969302357,10.592078419525574
1708,La Serra,44.31914561570882,10.600358848562442
1707,Serradimigni,44.322543339873626,10.600100092421057
1706,Muschioso,44.278974415919791,10.524015536954064
1705,Vallorsara,44.282564041841468,10.530938494422458
1704,Rovolo,44.293427159945004,10.5190621107505
1703,Mulino,44.305759933521237,10.521862584149002
17,Ponte Alto,44.667388059725482,10.898167270432785
1699,Romanoro,44.309741631652969,10.52370829495815
1698,San Scolastica,44.311832570751818,10.526909594234363
1697,Lasetta,44.324501400790126,10.536180197603022
1696,Bar Pineta,44.345566882669182,10.833437791481561
1693,Spervara di Sopra,44.281960924240018,10.580500346595928
1691,Spervara,44.282516927314163,10.582608158924836
1689,Giardini bv Delle Ville,44.344002988819099,10.834957207561242
6341,Indipendenza polisportiva,44.637719260918999,10.968160542736403
6337,MODENA EST,44.640190286265053,10.96634013408832
6336,Caduti sul Lavoro BNL,44.637325827895758,10.974262360280767
2570,Piazza Matteotti,44.647190285018951,10.924835476493866
257,Cavallotti,44.777510747034263,10.88091851000102
2569,Canalgrande bv Emilia Est,44.645502315145897,10.929369776336477
2567,Emilia centro Posta,44.645588504255294,10.927998112090538
2566,Piazza Mazzini,44.646387384882615,10.926536548810743
2563,Amendola,44.633265612137983,10.915612672006846
2561,Sant'Antonio scuole,44.367622529660594,10.837439202327188
255,Ugo da Carpi,44.774067217777485,10.878468611009627
2539,Giardini carcere,44.628116934744718,10.897239458824416
251,Marx,44.774703726854845,10.883001161092016
25,Canaletto Coop,44.655865029658187,10.934102647740762
249,Cavalcaferrovia,44.770305290451176,10.899084659965588
2479,Braglia,44.332182200767271,10.829909965870707
741,Corlo edicola,44.581285562156843,10.824356748193161
739,Formigine stazione,44.577385759509852,10.845747946018058
738,Formigine cartiera,44.586360030223254,10.852494513606963
737,Molinella,44.580923799950739,10.849638810139799
735,Formigine,44.576153228859887,10.848479903123488
734,Berlette,44.582777324065447,10.788679152038357
732,Casa Corradini,44.59313547789278,10.791214359881627
731,Magreta crociale,44.597804552689475,10.803428603452682
642,Panzano bv 1,44.625202541406892,11.037624334376893
641,Gaggio,44.635259433343052,11.012180320430152
64,Magazzeno,44.799341523460875,10.880894546103871
639,Olmo bv,44.629795242204779,11.009608746566926
637,Panzano bv,44.617941958747629,11.01199784654194
636,Modenese bv,44.592797024732164,11.024786885550402
635,Madonna degli Angeli,44.602273423874031,11.031555201805128
634,Ospedale Castelfranco,44.597350161793024,11.046112784009299
633,Ponte Sant'Ambrogio,44.622909179637219,11.000849848798211
632,Emilia Est Same,44.620603059635528,10.987535495366537
631,Emilia Est Fossalta,44.625487558850182,10.975827435933295
630,Sant'Anna,44.599140010981621,11.017371518910096
629,Sant'Anna 1,44.604223742836261,11.017522321435672
624,Emilia Est Hotel Fini,44.639297264311523,10.94278169983483
622,Istituto agrario bv,44.836236858272223,11.281589461283881
1917,Prugneto,44.294922225966779,10.799696089956154
1915,Casa Pattarozzi,44.286479105942419,10.801305636099238
1913,Ca Vignali,44.295685350664968,10.800972916499692
1911,Casa Ferrari,44.298874217701488,10.803138827086105
1909,La Torre Renno,44.301767693129278,10.804054818427659
1907,Casa Battistini,44.436781363241025,10.672889759041082
1901,Serra di Prignano,44.437482202321718,10.679117087363048
1899,Prignano Secchia,44.437360151228638,10.689831886856734
1898,Prignano,44.437093631400067,10.692023140247597
1897,Prignano Poste,44.437990477487418,10.693468935847523
1896,Casa Trinelli,44.44037740141767,10.698237607489622
1894,Casa Bea,44.37310499351063,10.894745664599803
1893,Serretta,44.365785361623779,10.87129201572407
1892,Comun Grande,44.371395938446646,10.891941817882005
1891,Carrobbio,44.371236509544289,10.882523268387825
1889,La Croce Benedello,44.364940446634151,10.874502976671307
1888,Benedello,44.366581588284795,10.866648688653408
1887,Spinzuola,44.366376173610192,10.86158443839347
1886,Piandiscuola,44.360763121498557,10.85908506859267
1885,Vaglio,44.355950254763009,10.857201222454597
1883,Campichiara,44.350988745599814,10.853380784784706
1879,Sant'Antonio 1,44.322631443133218,10.812896002782145
1877,La Croce,44.32812182405663,10.814683083110083
1875,Casa Roggiano,44.330651588165239,10.814685855845294
1871,Casa Villani,44.334240346684695,10.814332457433311
1867,Casa Oppi,44.339694493644927,10.812731927929164
1865,Monzone,44.326277603293484,10.790069687611515
1864,Santa Maria,44.320045574993458,10.791347346990763
1557,Quattroponti,44.553308834657862,10.795191697906585
1556,Panorama,44.555351780318595,10.797520867573967
1554,Radici in Piano Montegrappa,44.558854365125804,10.801481748545628
1553,Radici in Piano bv Sella,44.560997743686428,10.803713734276448
1552,Radici in Piano bv Piemonte,44.563879991543338,10.807039126058255
1551,Edilcuoghi,44.56678613623987,10.810554491309864
1550,Ponte Fossa,44.568191282156505,10.81447690996159
1544,Grazia,44.575899514168718,10.82451575733263
1540,Corlo,44.580126254375642,10.827608073700452
1538,Mulinetto,44.58425878673426,10.836001238633861
1534,Copernico,44.589716364822834,10.849816954727524
1530,Casinalbo,44.594037801990922,10.858118326206693
1520,Colombarone,44.609564797465794,10.79466838268014
1518,Turco,44.605287124296957,10.794763457164914
1517,Pizzeria,44.549163586862221,10.777036142464633
1515,Calatafimi,44.556245835790705,10.781834858052033
2679,Indipendenza bv Resistenza,44.638907607773859,10.965023302173936
2678,Indipendenza polisportiva,44.637773244001892,10.968162368297046
2677,Divisione Acqui i Portali,44.642704128433621,10.955732082113412
2676,Pancaldi bv Ponchielli,44.637986650950538,10.953114864490649
2675,San Michele Centro,44.509505388246716,10.745636158628413
2673,Pancaldi bv Cimarosa,44.638896014811394,10.951001879277786
2671,Emilia Est Mulino,44.637656594705874,10.947139933103418
267,Cascinetta,44.932683628506105,11.211219062610844
2669,Speri Jaguar,44.634839919569231,10.951294589677643
2661,Araldi bv Speri,44.634931059998237,10.950175534628997
2660,Emilia Est Modena 118,44.638471172596375,10.944771523379108
266,Tre Gobbi,44.930208606556768,11.202810899377223
2659,Del Pozzo,44.637716106950627,10.941531102991078
2658,San Michele Centro,44.509456934889172,10.745861168117774
2657,Emilia Est Finanza,44.640355538311695,10.940370851896636
2656,Emilia Est bv S.Giovanni Bosco,44.641665032736576,10.93747651477114
809,Veggia ceramica,44.543935458998952,10.762362699365147
7314,Secchia,44.718147943161085,10.956025266157525
7315,Secchia,44.718341206473298,10.955779257751278
2562,Maranello IPSIA,44.530275381774629,10.865138074753709
2564,Maranello IPSIA,44.530523461591436,10.864831359322164
7201,Malavolti CNA,44.650533005249947,10.957496012070997
490,Cavezzo Autostazione,44.833653927990106,11.025299170691181
488,Medolla Autostazione,44.850173798816812,11.068424047008177
6134,STAZIONE FS,44.654103420973755,10.930209980843884
3161,25 aprile,44.797136657967712,10.900963666255805
3184,Catellani,44.781717119710656,10.880777051612716
3187,Lenin 2,44.778466769819644,10.875337744691528
3189,Mozart,44.779814375891178,10.868366451638243
3196,Parigi,44.778402230399088,10.865540270017052
3192,Londra,44.776506110775628,10.864784063489314
3194,Lenin 1,44.776398621067408,10.866954471051782
2497,Torino,44.53500168567642,10.789770633874884
2499,Torino,44.535085430721381,10.789596989994491
2532,Cairoli,44.535797584973075,10.792979421951051
2533,Cairoli,44.535862745738612,10.792842969694723
2534,Gorizia,44.537012831373175,10.792412557781045
6713,Luosi bv San Faustino,44.642921147532043,10.910483103056203
6709,Luosi bv Fattori,44.643227892389852,10.912056787393944
6705,Barozzi bv Rangoni,44.64412100264385,10.916777046740515
6700,Barozzi Planetario,44.649075101055153,10.91768431323676
670,Sorbara bv,44.749605271945597,11.002564846538249
668,Il Cristo,44.756452089709455,11.007400328689682
6675,PANNI,44.627518946527509,10.907733694323202
6673,Panni bv Giambellino,44.627773645234527,10.90488037904537
6671,Ribera bv Panni,44.628522200407872,10.903719850315087
6669,Ribera Conad,44.630107159110011,10.904767626820865
6665,Pisano,44.632872254400517,10.905765845930889
6663,Nievo bv Amendola,44.635229754739669,10.908528547368013
6661,Nievo bv Tiziano,44.636695588006191,10.909698757251004
6659,Gaurini bv Bianchi Ferrari,44.637498685306802,10.911200307609352
6657,Guarini bv della Pace,44.638365000108372,10.913763110776721
6653,Guarini bv Venturi,44.639409724297892,10.91642012801602
6651,Guarini bv Lana,44.640506462877653,10.919192439306698
6649,Sigonio bv Guarini,44.641182640534758,10.919668675251742
443,San Marino,44.808129195044749,10.913844060460848
440,Cacciatori trattoria,44.796693686196392,10.923112647433619
439,San Marino bv,44.800327157715046,10.902901845189527
437,Cibeno,44.795808971085215,10.895812285200911
433,Cibeno farmacia,44.791058893861347,10.892913412761404
429,Ghiacciaia,44.707651362860226,11.018083529977911
428,Casa Sasso,44.698091317754013,11.011427831280283
427,Villavara,44.690132588097043,11.006861455881337
425,Metano,44.684440939705233,11.003396611361154
424,Albareto bv,44.676222739347679,10.998205323414677
423,Navicello,44.668416806684903,10.993105370251845
421,Navicello scuole,44.666933321771246,10.988866359849808
419,Ponte Perlina,44.665076964865364,10.981726114879105
417,Nonantolana bv Cuba,44.660145517269576,10.964428992446489
416,Villa Romana,44.84477602101056,11.070217430224485
415,Villafranca,44.834671558578627,11.061986236207394
413,Villafranca scuole,44.830884873273817,11.070263853678394
409,Rovere Caseificio,44.813817479820116,11.062267054319177
408,Staggia,44.804014625978773,11.053749089468869
407,Staggia Stazione,44.799239860565756,11.058447472390165
406,Verdeta caseificio,44.78147470706044,11.046642209123064
405,Lama,44.768886245852812,10.906986896012356
401,La Baita,44.767592707895751,10.911127114324325
399,Roma,44.765802125223409,10.916981912262022
398,Limidi,44.763460522967435,10.925067262261333
397,Casa Rossa,44.755757439195413,10.950357872008304
396,Due Colonne,44.754452054055342,10.919019592625489
395,Limidi mulino,44.753446139281628,10.958113028872333
394,Viazzolo,44.749146606387477,10.91598895081702
393,Sozzigalli Caseificio,44.750852669616087,10.966540192826491
391,Distributore,44.748808975058992,10.975414847847723
389,Sant'Anna,44.782530506423697,11.123392255561592
388,Solara,44.771047132308745,11.092982273560436
387,Casa Malagoli,44.775597572028616,11.128774859741933
386,Bedagna,44.764052284143375,11.126114042171631
385,Stuffione,44.753611984917136,11.11921200440019
384,Casa Balugani,44.754057628986764,11.115084387791338
383,Villa Stuffione,44.74511141616464,11.096429074119929
382,Loreto,44.73993802973839,11.08890354264569
381,Case Nuove,44.734573128750036,11.107490569037244
1687,Giardini comunita' montana,44.340407479022566,10.834606674950249
1686,Martiri elementare,44.336506962701144,10.834748433550953
1683,Gober,44.330833968383743,10.834822357237435
6335,22 Aprile,44.640945964099416,10.963755546073312
6331,Indipendenza bv Resistenza,44.638873571008084,10.96490867341341
6327,Divisione Acqui i Portali,44.642530806057017,10.955864962808903
6325,Pancaldi bv Ponchielli,44.637933314115628,10.953075248672834
6321,Emilia Est Mulino,44.637593856581702,10.946595666076849
6320,Speri Jaguar,44.634693594042375,10.951428371544308
6315,Emilia Est Modena 118,44.638209177430859,10.944825812098113
6313,Del Pozzo,44.638107059817173,10.941834144497252
6305,Emilia Est Finanza,44.64037096049266,10.939993091223243
6303,Emilia Est bv S.Giovanni Bosco,44.641573562240616,10.937561735308927
6301,Emilia Est Aci,44.642670281570574,10.935000661886985
6277,LA ROCCA,44.698807182943121,10.980264037291548
6273,Albareto bv Dotta,44.696873277745375,10.97705536190713
6271,Albareto Fertilcoop,44.695003290725381,10.973268507629768
6269,Albareto bv Munarola,44.692377775901718,10.968913603732497
3214,Marx 1,44.771656385471765,10.881094908669786
3212,Bollitora 2,44.773084570471788,10.868680174408658
321,Sorbara bv,44.749903854427494,11.002992049092018
3209,Remesina 3,44.796931559354661,10.881827687162192
3195,Cimitero,44.780342020746716,10.87900076343556
319,Il Cristo,44.756265936837657,11.007747643394239
2885,Istituto Cattaneo,44.640689837672781,10.903399115332832
2883,Marconi bv Corassori,44.640894669579886,10.906230293543944
1839,Cerredolo,44.403439134038919,10.617625040593385
288,Granai,44.813438278319971,11.131912393049147
2879,Luosi bv San Faustino,44.642854861319094,10.910140464765671
2877,Palestra San Faustino,44.642075857253303,10.908273901898088
2875,Luosi bv Fattori,44.643320742960157,10.912425522720707
2873,Istituto Fermi,44.643588000062323,10.914741911234936
2871,Barozzi bv Rangoni,44.644239662129522,10.916680075488097
287,Rivara,44.84063145391616,11.170253858926548
2869,Barozzi bv Setti,44.646691520061673,10.917025664962212
2868,Barozzi Planetario,44.649114901372251,10.917458626042428
2242,Ponte Secchia,44.406909256462079,10.616703427784305
2864,Amendola bv Nievo,44.633998685429994,10.907315659175483
3497,Roteglia,44.484882366763365,10.68211142594633
2861,Ribera bv Panni,44.62862180360262,10.903685287351896
286,Camil,44.877892830940617,11.139647762466415
2859,Ribera Conad,44.630383559802617,10.904927954306814
2857,Pisano,44.632631634951565,10.905619286017771
2855,Nievo bv Amendola,44.634328378638159,10.908057717891348
2854,Nievo bv Tiziano,44.636253932732018,10.909192543696912
2853,Guarini bv Bianchi Ferrari,44.637382633754711,10.910603896430834
2852,Guarini bv della Pace,44.638307720764686,10.913420791893621
2851,Guarini bv Venturi,44.639162544933427,10.915592409862066
285,Ponte San Pellegrino,44.87422498017915,11.148487846113643
2849,Guarini bv Lana,44.640301961962763,10.918504801118834
2848,Sigonio bv Guarini,44.640947319925239,10.92027876789143
3499,La Pesa,44.466609192915804,10.660428258505837
3501,Cavriana,44.496964760344888,10.71533829474434
3502,Villabianca,44.506447515510807,10.725894515886122
3503,Muraglione,44.46316005627321,10.656785455027075
3203,Pianorso,44.342939531638173,10.703111666083453
3202,Celia,44.343509069551601,10.711985160074065
3201,Lama di Polinago,44.342743510431568,10.725762551041354
320,Voltone,44.826831476935553,11.014548184527802
3198,Polinago scuole,44.344984516262556,10.725213580499807
3190,Gaianello,44.314855167926801,10.800806956242672
3504,Castellarano,44.51159520662064,10.731959713801025
3505,Poggio del Bue,44.451937263164794,10.651566319387973
3507,Casa Geti,44.441319805518781,10.649922504732928
3508,Tressano,44.532086670581727,10.750162008270948
3521,Cerredolo,44.403487686669507,10.617375215649453
3527,Le Buche,44.381986650898043,10.616268296464584
3011,Carabinieri,44.77103141392444,10.891677557736038
5699,Bazzano zuccherificio,44.524930345580081,11.062816290810749
5700,Magazzino bv,44.517380050034276,11.065645088502071
5701,Magazzino,44.519002128602033,11.056579811210055
5702,Bazzano FP,44.508173756958342,11.077862611797773
1514,Sottovia,44.560214732069291,10.783643332533456
1513,Ciemme,44.565911506188577,10.784913057604884
1512,Quattro Colonne,44.572798914517527,10.786609934887014
1511,Ancora 299,44.577417426959855,10.787746446804032
1510,Magreta,44.597989779410703,10.796819335508953
1509,Campo Sportivo,44.595242776929723,10.802039005502387
3386,Civico 226,44.310807656172244,11.015539737543811
3384,Casa Miro,44.312884123612719,11.013679868914942
3383,Ristorante La Trappola,44.317015889263104,11.010134577219166
3369,Alienda,44.275304357048199,10.936747480391308
3368,Casa Zocco,44.279836904081193,10.933851218212586
3367,Bertocchi bar,44.284551882601022,10.93081010774428
3366,Salto Chiesa,44.282935577990067,10.926295622465339
3365,Lavatoio,44.280735698821118,10.923278717157171
3364,Fucina,44.279165324689693,10.920833939557077
3363,San Martino,44.279449717508228,10.916231566261285
3362,Maglificio,44.28192974349156,10.914369720685777
3361,Casa Fabbro,44.283324635512344,10.907948284656987
3360,San Giacomo Maggiore,44.287202558285507,10.904852799238824
3354,Casolare,44.346633649893555,10.925069141981547
3352,Verica casa cantoniera,44.33363886251415,10.927955227478074
179,Torrazzi bv Lumumba,44.657356925878325,10.961686104293983
3348,Baita Panaro,44.27196358382362,10.867058371448817
3346,La Borra,44.282242987573539,10.87761031888536
3345,Il Frantoio,44.285388106792666,10.879064087780856
3344,Chiozzo,44.291870394658233,10.885061678269672
3342,Lido Panaro,44.299110610270297,10.892025136224525
3340,Ristorante Martino,44.308607886682545,10.906686146808669
3338,San Rocco,44.289334536505955,10.901174139068242
3337,Caseificio,44.288768584168395,10.896769108300354
3336,Casa Bussoli,44.291289667779367,10.896211034450761
3335,Antoniano,44.296435870625317,10.900751502239883
3334,Ponte Saburano,44.301666427975888,10.907238645534429
3333,Docciola Vecchia,44.305983728204588,10.911252504115035
3332,Ponte,44.309622487945617,10.911157479759966
3326,La Maesta,44.275996138264738,10.802100512807044
3322,Ponte Prugneto,44.29164772374893,10.79953338605093
3320,Prugneto,44.29528434168116,10.799569267940983
3318,Biondo 2,44.780468945191657,10.886588675736366
3317,Casa Pattarozzi,44.286347196880094,10.801677597453121
1539,La Chiocciola,44.254528206791775,10.932870986558555
171,Ferrari,44.649602625661814,10.938686682775968
2209,San Prospero,44.78834523177435,11.023308936148226
2198,Frassinoro scuole,44.295102181992753,10.57158948148466
2197,Faidello,44.15700425946325,10.646992307834092
2196,Borgo Nuovo,44.163661700135556,10.639823378646758
2195,Dogana Nuova,44.164922894513268,10.63977077355738
2194,Sorgente,44.169726700610966,10.640666910078872
2193,Villaggio artigiano,44.172453202399062,10.64076753504256
2192,Fenecchio,44.175951003024991,10.644204644856286
2191,San Possidonio,44.892095258951421,10.995157904016242
169,Ferrari,44.649841039979286,10.937900121133861
511,Italia,44.638599039045879,10.899749840946768
2187,L'Oca,44.220054398094263,10.900770326377822
2186,Casa Piedino,44.22135674433185,10.912279917214418
2185,Casa Busia,44.223843932721081,10.918044457944246
2184,Polidori,44.226769502382091,10.921282121665753
2183,Caseificio 1,44.229525625670696,10.924952823727642
2179,Rondoni,44.235836424487019,10.924970783597214
2177,Casa Marchiori,44.24000581892291,10.925444899190964
2175,Ponte Capraio,44.24500974657505,10.927148664006916
2173,Ponte Fola,44.215471795720511,10.630582942471689
2172,Le Lazze,44.190901732670788,10.629367134894443
2171,Passo San Michele,44.189697156249331,10.636165841295469
2170,Ponte Modino,44.194769175048535,10.619512807059206
804,Gatta,44.492049888003919,10.955555889331052
803,Palona,44.49511564620304,10.953167983221544
802,Giardino,44.501494644479145,10.949179589302341
613,Amendola la Baracchina,44.633250877283764,10.912195521548986
168,Amendola la Baracchina,44.633636291773151,10.912296436387939
801,Chierichina,44.500537106929187,10.944619251779413
8008,Cimitero,44.780257451873219,10.878669389651538
985,Italia,44.638052056201197,10.900160681221445
167,Tangenziale Neruda,44.634645508555273,10.900919419839886
161,Tangenziale Neruda,44.635103963583965,10.900959608061561
1116,Lama 1,44.767496238358795,10.888251282145179
800,Castelvetro,44.504735731550568,10.946532640316047
798,San Michele,44.772243822347022,11.073778073094083
796,Gorghetto,44.769172248954391,11.06891653547588
792,Casa Baraldi,44.747915589120545,11.045065515314754
791,Villaggio Artigiano,44.737683916133591,11.029207292483038
790,Ponte Vecchio,44.734946059925399,11.037863895385291
2535,Radici in Piano bv San Lorenzo,44.546223759035321,10.786010619722495
2536,Radici in Piano bv San Lorenzo,44.54518842214577,10.785437643030217
2537,Piemonte,44.56397208909528,10.805770120845805
2538,Piemonte,44.563901497392109,10.805679787976617
2540,Toscana,44.566167089779945,10.801883809534202
2541,Toscana,44.566389202795953,10.801500280389806
2545,Mazzini,44.539189426455863,10.789672387044879
207,Braghiroli,44.633659268603708,10.94609845883944
208,Braghiroli,44.633605714345478,10.946071452965866
2810,Baggi istituto,44.543647946018424,10.790677612535077
2839,Baggi istituto,44.543931548227832,10.790963252165174
2881,Ugo da Carpi 3,44.769887082846196,10.875919332974508
2889,Ugo da Carpi 3,44.770062600116063,10.875646993903617
1467,Castelfranco teatro,44.594332699820171,11.056224789246189
1468,Castelfranco teatro,44.59358989573964,11.055480441116067
8520,Fanti 1,44.784572750973723,10.88557208976103
8518,Govi,44.791606200108902,10.874473857573221
8519,Fanti 2,44.785763752498468,10.882134651276546
8524,Cavallotti,44.777381869337503,10.881091270376201
8526,Leopardi,44.775963705423784,10.873171318663227
8533,Nuova Ponente,44.779526341730936,10.871112559804576
8537,Stazione FS,44.782121611169991,10.891711164090873
8534,Piscine,44.784971791193328,10.868419094047944
8535,Peruzzi 2,44.783392782926342,10.874132119499299
8536,Peruzzi 1,44.782366946844938,10.877941500908905
8538,Alghisi 2,44.778019431344369,10.889365324311434
8539,Alghisi 1,44.777004808001458,10.888662364186441
8540,Israelitico,44.775395134385505,10.892363525463947
8541,Lucrezio 2,44.774973052888143,10.89447299636282
8542,Lucrezio 1,44.777227405173605,10.894786873885174
8543,G.Cesare 2,44.776992779961077,10.896447532544375
8544,Sigonio,44.768458155784643,10.889963358290837
8547,Cuneo 2,44.768655514781784,10.867576894875169
8548,Bollitora 1,44.769809528629686,10.865819594967292
8550,Manzoni 1,44.788533785294504,10.888836162789564
8551,Manzoni 2,44.789287587434544,10.885713001955724
8308,Pezzana 1,44.791187025462783,10.884624451683381
8309,Pezzana 2,44.793253759416167,10.88594334113805
8311,Pezzana 3,44.794723292019185,10.886901500632504
8312,Bracciano,44.793637776513982,10.893200024577899
8314,Roosevelt,44.792381908645631,10.893475007476715
8315,Ramazzini 1,44.791153015748378,10.894294467371957
8316,Malpighi,44.792271436402473,10.897959387305406
8317,Guaitoli,44.79533002252176,10.899172253032143
8321,Cabassi,44.783897831676036,10.888280439557198
8322,Parco,44.78552427356906,10.880824868378822
8323,Ospedale,44.786000390306626,10.877604272830805
8324,Casa Protetta,44.787834276534511,10.875021720490269
8325,Grimelli,44.789539072231072,10.87426786881475
8328,Ariosto,44.784421795030504,10.889801748228875
8329,Meloni,44.770369693551437,10.886512507518713
1681,Case Bruciate,44.283779564371329,10.575937114849113
1679,Bar Cacciatori Solignano,44.527893784353445,10.922423795710092
1678,Ca' Facchini,44.283575513445172,10.571144214861022
1676,Ca' di Giannasi,44.290990615390044,10.567456344440764
1673,22 Aprile bv Manzoni,44.327800212794678,10.839844866112045
1672,Casa Tocco,44.31501415380189,10.911758860762971
1671,Campi nuovi,44.320467402191007,10.914594556892295
1669,Casa Calcina,44.317813656699805,10.909630243805623
1667,Monticello,44.320908793214478,10.908125493935959
1665,Gneda,44.326759716621801,10.910873738235825
1664,Campidello,44.328107806061055,10.908860632108263
1549,Casa Monte,44.349680207662637,10.630498699329886
1548,La Buca Susano,44.357663112401795,10.66623196882421
1547,Susano,44.356690227343883,10.662565428684806
1546,Costrignano coop,44.36942925434586,10.66441940466915
1545,Costrignano,44.364126342785347,10.666904651109892
1543,Stradello Fontana,44.353441533648919,10.662473552333113
1542,Casa Bernini,44.327137613928912,10.646767805891093
1541,La Preda,44.33307337097817,10.646570196642413
1537,Casa Lenzotti,44.336290677462607,10.65195373141256
284,Confine,44.872857886616551,11.155108710521404
2837,Zodiaco bv Varoli,44.630049114680936,10.896899003758936
2831,Zodiaco bv Luzzo,44.631727674717062,10.897735351090077
283,Pavignane,44.862401031380621,11.180046186332056
2829,Forlanini,44.632137767486505,10.899059887779462
2827,Direzionale 70,44.63596248789235,10.904543162460328
2825,Giardini Donatello,44.639781856640141,10.908715651030228
2823,Giardini Polizia Stradale,44.641240050695139,10.913567641855712
2822,Giardini villa Fogliani,44.642380372337435,10.917501506398498
2821,F.lli Rosselli bv Pelloni,44.627981861956314,10.915035408236163
2819,Forli' bv F.lli Rosselli,44.623095659224767,10.911685537648548
2813,Casalegno rotonda,44.620625170731287,10.925305949246964
2811,Amendola bv Tamburini,44.632923313033928,10.91776990626952
2809,Don Minzoni USL,44.633556633940422,10.922934708041858
2808,Gobetti,44.634321088241464,10.926717102237101
2805,Garibaldi bv Mazzini,44.324641160195576,10.838667542026847
2804,Dalla Chiesa bv Tobagi,44.61855348937965,10.927506260584238
2803,Dalla Chiesa bv Ghiaroni,44.617907618050957,10.929501572596436
2802,Liguria,44.618742661470435,10.9317602301207
2801,Magenta bv del Garda,44.621745104387777,10.933082524022662
2799,Magenta bv Vigevano,44.623565737320931,10.932424448944786
2798,Pavia bv Milano,44.624181423504297,10.930087624159185
2797,Morane bv Pavia,44.624807484852326,10.927133409839582
2796,Morane Hesperia,44.626751352646771,10.927172536443258
2795,Morane esselunga,44.631976166329942,10.926437771034605
2794,Morane bv Gobetti,44.634102531980368,10.926331633765132
2791,Medaglie D'oro bv Bellinzona,44.635849553918234,10.930562760782987
2789,Morane bv Bellincini,44.635878423230508,10.926188676384994
2788,Cinema estivo,44.639392796851901,10.924918004780551
2784,F.lli Rosselli bv Conco,44.629265467915403,10.916867790306345
2783,F.lli Rosselli villa Rosa,44.631196012520029,10.918772005351006
2782,Buon Pastore bv Amendola,44.633031481567279,10.919904149906523
2781,Buon Pastore bv Domenichino,44.634657995248752,10.920613410074859
2779,Buon Pastore Portici,44.63660629022425,10.921459417098443
2777,Buon Pastore bv Peretti,44.638090954544488,10.92203799623065
2776,Sigonio bv Tamburini,44.640103831554136,10.922255783395014
2775,Vaciglio bv Viterbo,44.624363633030015,10.941111040235366
2773,Superchia,44.519476015231625,10.759989199314411
2772,Braida Ist. Baggi,44.543891050783614,10.789526942433623
2771,Della Genziana,44.587747602396028,10.972796920244489
2769,Del Mulino,44.58902392676498,10.970307903479094
2763,Vignolese bv degli Alpini,44.601854805789408,10.969128782511442
2762,San Carlo,44.545165549409028,10.794362252613533
2757,Collegara bv Ginestra,44.604881480731287,10.971108685366769
2756,Vignolese la Fenice,44.605981549173052,10.967352786130984
2755,Collegara bv Scartazzetta,44.603768154449348,10.975103417298167
2754,Vignolese Enel,44.608315952365942,10.963008236370781
2753,Collegara,44.60233044399213,10.980145457016958
2752,Vignolese bv Bacelliera,44.610597608973734,10.960678001373109
2751,Vignolese la Fornace,44.613843224855628,10.9583043746676
275,S.Martino Spino - Coop,44.934281642827202,11.239149176017673
2749,28 Settembre,44.547318094540756,10.793156907969333
3027,Moro 1,44.773434340422142,10.89171811400036
3001,De Rosa,44.775412868690395,10.887485623709921
3028,De Rosa,44.775696399190672,10.887760274032043
3029,Losi,44.781603621854188,10.867400345665274
3031,Cattania,44.759740558177008,10.874883301061212
3032,Moro 1,44.773152068275792,10.892454541164676
3033,Carabinieri,44.770960899891541,10.891586792098963
3034,Lama 1,44.767674932923413,10.888332927184559
3035,Meloni,44.770567403781094,10.885988171065859
3037,Minghetti,44.769799792331362,10.883953846662413
3039,Liguria,44.76579261878971,10.87746741376448
3048,Polizia,44.763670739407047,10.876210879694954
3049,Pini,44.762049176456181,10.875185433852351
2487,Pia,44.544077837635584,10.781035527598441
2491,Palazzo Ducale,44.542618084320615,10.777655176825869
2492,Palazzo Ducale,44.54258032799666,10.777767319805832
2493,Monzambano,44.54354674210952,10.781031917850935
2495,Venezia,44.538745278252236,10.772552766785672
2496,Venezia,44.538662535275314,10.772663540345443
3467,Pronto Soccorso,44.787431987566421,10.879230845844788
459,Navicello scuole,44.66668533978369,10.989665228428931
6552,Dalla Chiesa asilo,44.620180157459195,10.923400518737163
7240,FINZI,44.665489936749509,10.938800053417255
491,Castelfranco FS,44.59736937048617,11.056067328814709
469,San Pancrazio Chiesa,44.672818102936667,10.899694507760548
474,San Pancrazio Chiesa,44.672681462060638,10.899790971769137
7222,Soratore,44.664284727378678,10.938734638540557
2603,Montese Comune,44.267484221597662,10.940788061161227
6787,Euclide,44.645588062572749,10.887619924664843
6785,Aristotele,44.644047588418665,10.88495968884919
6784,Formigina bv Archimede,44.64660094725199,10.90090643984326
6789,San Faustino,44.646678820048038,10.903796796469601
1452,Fogna,44.338270675443788,10.99993493690798
6806,Cesari,44.657213818541891,10.914433665277434
6804,SANTI,44.656879255321286,10.916667721817412
6846,Salgari,44.659309853838828,10.889124751864768
6385,Divisione Acqui Questura,44.645634753225885,10.948604882372429
6448,SAN DAMASO,44.60069657183427,10.981438198867298
1978,Fontanaluccia garage,44.263796964050556,10.522545842151564
2272,Case Popolari,44.376197321313356,10.673799456246932
2270,Lama di Monchio,44.3787365460758,10.670080850910916
2266,Mulino Lama,44.382660326793051,10.670179874570762
2264,San Martino bv,44.384635528092161,10.669934751095266
2262,Casa Sistoni,44.385690137790711,10.660586645124793
2260,Monchio,44.384423678524165,10.649201947669193
2258,Casa Ponci,44.387090501767702,10.644694399275904
2257,Le Piane,44.396453795891993,10.640913477987082
2256,Croce di Monchio,44.399745151134283,10.641168737310098
2255,Ca' De Villa,44.404464228965601,10.646060326375716
2254,Pugnago,44.407607742358536,10.640949064557583
2253,La Curva,44.413663340732512,10.638669172074167
2252,Casa Aloia,44.41291228229349,10.637053051169568
2238,Serravalle bv,44.425637539750035,10.982158788136811
2236,Fornace,44.434914605505966,10.988126662236693
2234,La Torre,44.444440433902074,10.985484061434162
2232,Torre scuole,44.445883610588105,10.977024972833119
2230,Ponte Borlengo,44.451181181558439,10.985096662982802
2229,Villa Torreggiani,44.45965426904931,11.006124598806855
2228,Garofano bv,44.4579659222807,11.002811190726421
2220,Zocca bv 1,44.464497787219344,11.013280119882076
2219,Zocca bv,44.466696759021922,11.016209500651859
2218,Formica,44.470534805006707,11.009917141984117
2216,Campiglio bv,44.469548605882061,11.022430413433804
2214,Casa Bighini,44.475629636457143,11.030813351612268
2212,Osteria Vecchia,44.427375461029079,10.847388890334717
2210,Ricco,44.430793333041294,10.847584536757124
2208,La Macchia,44.442058327770141,10.849648683994319
2207,Mirandola mercato,44.892209047136916,11.065194472646894
2206,Casa Ventura,44.447325343139148,10.854062770268737
2203,Mirandola Ospedale,44.883223720540748,11.067253326047492
702,Santa Maria scuole,44.60513998241494,10.932821383334787
701,La Bertola,44.60021628359786,10.864023319523664
699,Gherbella,44.598539964811359,10.948251814204719
697,VACIGLIO,44.612910586655289,10.938044865599599
696,Ponte Re,44.549452494294961,11.005770984958565
695,Altola',44.533465978059333,11.032634341501717
693,Fa l'Alba,44.549037892685675,11.036311201945969
691,La Corte,44.741009129243714,10.916490567424995
788,Stazione,44.740303539929045,11.025661263517543
4208,bv Casa Storto,44.390239204497739,10.76076858579528
4207,Forno,44.392762498190415,10.760605704004389
4205,Pompeano,44.399339041764158,10.76031323650561
4200,Serramazzoni,44.422349208388731,10.789331488465534
420,Mazzalupo,44.92308227663505,11.020127914864231
3316,Ca Vignali,44.295787405120244,10.80135209080454
3315,Casa Ferrari,44.298856314631983,10.803702389504727
3314,La Torre Renno,44.301607788256646,10.804488693214456
3304,Casa Battistini,44.437084230650413,10.671880609026305
3303,Serra di Prignano,44.437658353209798,10.678770300096673
3298,Casa Trinelli,44.439483769317391,10.699606525708466
3294,Casa Pianelli,44.375089276792217,10.891809731682432
3293,Casa Bea,44.373037843967033,10.894994530810321
3291,Comun Grande,44.37117520534207,10.892223387001209
3289,Carrobbio,44.370934402882767,10.882827366611798
3287,La Croce Benedello,44.364733772736713,10.875575669264709
3851,Frassinoro scuole,44.294884293520134,10.571721553641387
3637,Sant'Antonio bv,44.272216249837228,10.792863037432538
3325,Casa Bettini,44.278447323912964,10.803090251007893
3167,La Teggia,44.302034645978956,10.768572252143736
1175,Casa Bartolacelli,44.447895109614876,10.788427382456758
43,Soliera Industriale,44.725892131342661,10.911786135771548
1210,Zocca bv,44.466275985745085,11.015566432240348
4,Risorgimento,44.643552240231905,10.92008731309509
6676,Amendola bv Nievo,44.633878193099775,10.906983909324746
6923,Suore bv Parenti,44.661561496380891,10.922498231872639
6960,Don Monari bv Cassiani,44.663337185501128,10.925571719483775
846,Ca' del Fabbro,44.529580682396727,10.93554275158092
845,Solignano,44.527692464376024,10.926356214986006
729,Tabina,44.59899264986678,10.815372568723319
728,Dini bv,44.599096073071557,10.829198248375802
727,Cavezzo,44.602071837026351,10.84567279200013
726,Baggiovara,44.603296536432353,10.86669248051321
724,Paganine centro,44.588694086788166,10.947557419962756
723,Paganine Unibon,44.592816839031649,10.950744082351857
722,Casa Roncaglia,44.556982435840091,10.902996624738632
721,Quattro Madonne,44.56283775426467,10.904396432337327
719,San Zeno,44.567529446235241,10.905393322790756
717,Montale,44.576165937169918,10.907904795388252
716,Ponte Santa Lucia,44.580491455697626,10.91033881016959
715,San Martino del Mugnano,44.588172849209172,10.913966709135035
713,Santa Maria Mugnano,44.595152981912577,10.923418637141284
708,Cabianca,44.566578590719118,10.93675710561052
707,Portile Madonnina,44.574776793215598,10.937470122077684
706,Botteghetto,44.58372586215944,10.934781980414478
705,Ponte Ghiotto,44.591376367096252,10.931155523937838
704,Cantone di Mugnano,44.597150105363312,10.928839459215704
2041,Maesta,44.255728618599591,10.749533328850838
2039,Acquaria bv,44.24677144204027,10.743594033601141
2037,Bandita,44.247385494583227,10.736974006218983
2035,Ronco bv,44.24699479623375,10.727118034868047
2033,Strettara bv,44.252336483570332,10.695684060274607
2032,Magrignana,44.250503546056102,10.689969843912307
2028,Borra di Ronco,44.246392024176025,10.668960968447495
2027,Riolino,44.231631979623273,10.655633983825467
2026,Sant'Andrea bv,44.215793768872409,10.614255617598189
2025,Cerreto,44.221690322022774,10.623180365769265
2023,Pero Grande,44.226532283206083,10.627094627891362
2021,Pievepelago capannone,44.232774737186553,10.624962652654554
2019,Rimessa Serpiano,44.239823058235757,10.631981864045079
2017,Morandina,44.246058845191719,10.632843160218256
2015,Serpiano,44.254477703710791,10.631510364032518
2013,Passetto,44.258600955572916,10.642197409666261
2011,Barigazzo,44.265590398106347,10.650723647961721
2009,Riolunato,44.23091783542079,10.651481904986012
2008,San Giorgio,44.264015456881097,10.656279759126043
2007,Borella bv,44.262867242322521,10.663426146246566
2006,Fontane,44.266525135909752,10.667563644214233
2005,Santona,44.272026797269326,10.671816591536848
2001,Vena Grossa,44.272350398997254,10.681661951403843
1999,Casa Guiglia,44.265770330588708,10.605900712554114
1998,Sassorosso bv,44.270274637109651,10.604419581538746
1997,Castellano Boccasuolo,44.275417849296687,10.606802572573633
1996,Casa Mingucci,44.282672438331758,10.613316662841427
1995,Spervara bv,44.280446171491079,10.581963557084595
1994,Raggia,44.24501512455641,10.526707753028058
1993,Casa Rurale,44.248685950495194,10.528906952917618
1992,Pietravolta,44.259111611135147,10.531582414714842
1989,Monte Nuovo,44.278080474967965,10.544318375252697
1987,Ghiarola,44.47805703314264,10.905672007687123
1985,Ca' Ferioli,44.266211646569587,10.507473282842568
8330,Peruzzi 3,44.784318997098346,10.870900848661826
3003,Cattania,44.759714187895909,10.87484454256859
3005,Pini,44.762217224294446,10.875367771179802
3006,Polizia,44.763749848600561,10.87632716521702
3007,Liguria,44.76664598772372,10.878126897881737
3008,Gioberti,44.768603767374593,10.888780224229688
181,Fabrizi,44.640998939908513,10.929497869985031
164,Medaglie D' oro,44.638610586411062,10.929658253022598
165,Medaglie D'oro,44.63861740151038,10.929254997904858
135,Cucchiari bv Manzoni,44.635391246778099,10.932110962017806
6879,Dalton,44.649721221075417,10.960734994925456
2204,San Simone bv San Pietro,44.546422360669226,10.798592964489252
2211,San Simone bv San Pietro,44.546087959929977,10.798104290158015
2213,San Bernardo,44.548036633244642,10.800128217394683
2215,San Bernardo,44.548041195763801,10.79983880629413
2217,San Pio X,44.549759722279617,10.800470904749996
2221,San Pio X,44.549801667316018,10.800094510672183
1854,Ponte Secchia,44.407163191202578,10.616572275605222
1861,Ca' Cerredolo,44.390679728580061,10.620336985081362
1862,Ponte Lucenta,44.47836337756992,10.670531829729567
1863,Roteglia cimitero,44.487236197181019,10.690366146887037
1873,Casa Nuova,44.490616027532823,10.698601014800428
1939,Villaggio,44.52237544524052,10.738797514581357
775,Parco,44.785799654625208,10.88104870767455
817,Lux,44.805395761031228,10.881698305992328
851,Fossoli zona industriale,44.818375639080585,10.888318060140415
883,CA' Del Vento,44.836937878524836,10.896477666001982
903,Bomporto scuole,44.728676521931128,11.037580507491352
923,Bruciate,44.847362814431008,10.898616740199529
926,Piave,44.853679746837187,10.898229543658527
946,Incompiuta,44.860226384822717,10.895394354482564
948,Ponte Pietra,44.866738052594528,10.891405473224948
970,Serragli,44.876528557448808,10.887826791371788
971,Rolo bv,44.883563118450205,10.889221848150802
976,Villafranca,44.887966483497507,10.895115127245445
977,Uris bar,44.891352774083444,10.897733830761139
979,Dogana,44.926425363201389,10.917630062273085
2338,Romano,44.586040601815156,10.847206050765795
2339,Romano,44.586487978886602,10.846262813420752
2774,Vaciglio bv Cuneo,44.628507121768557,10.940442362754293
2787,Vaciglio bv Boccabati,44.628936424364547,10.940607951712011
2790,San Faustino bv Bonasia,44.644377492004374,10.906836178519924
2807,San Faustino bv Bonasia,44.644203957685846,10.907524041617942
1437,Centro commerciale,44.593870527257756,11.050387710570734
1438,Centro commerciale,44.594086902634736,11.050370123838443
703,Rastellino Mulino,44.63366790685668,11.099067982491158
2549,Lesignana Centro,44.686528534491437,10.893744798417826
1447,Rastellino,44.635768234734627,11.095487368526085
5003,MODENA  AUTOSTAZIONE,44.650283277274504,10.919716726625678
3310,Paganine Unibon,44.592529569406466,10.95069667252535
3651,Poggioraso,44.235547498163307,10.781330376939742
1849,Pastore,44.329075914571732,10.845591469860533
1851,Monti,44.32712412527227,10.839898976353153
1465,Ceretolo,44.324319061549716,11.015137157585976
166,Vallalta,44.941937498280723,11.006060864704287
1659,Verica,44.327543886035066,10.904891642757772
1657,Verica Stazione,44.324479423424897,10.89753106297589
1656,Garibaldi,44.326562607618889,10.842339588892825
1655,Casa Dell'Oste,44.329462029773445,10.895120586954461
1653,Sassoguidano bv,44.328848885776615,10.887023681562475
1647,Martiri di Renno,44.330090958883211,10.830070684469421
120,Lesignana,44.685848897143615,10.892385028904506
1192,Km 161,44.649847262522314,10.797751781695661
1185,Emilia Ovest bv Virgilio,44.647711541865995,10.860815284240875
1180,Cittanova centro,44.64779246032969,10.843061892383576
1179,Cittanova della ghiaia,44.647233929264857,10.840295075738123
1178,Emilia Ovest Grandemilia,44.646596324250808,10.854108651959006
1177,Emilia Ovest Bruciata,44.650256931366073,10.866470899015455
1176,Stella,44.454661613964511,10.794390606893089
1174,Passo Vecchio,44.787961699998391,11.149215327074664
1172,Ghirone,44.790648765954245,11.160427291288142
1171,Hotel Paradiso,44.803669893750687,11.190451487608907
1170,Ca' De Coppi,44.798317839530895,11.177997300779035
1164,Cantone,44.808383289075664,11.203275696207715
1162,Trattoria Marina,44.812594150289762,11.215943642923923
1160,Ca' Bianca,44.81244011198384,11.221552843096431
1158,Ca' Bianca scuole,44.812956226793638,11.229249237136495
1156,San Luigi,44.819885940878549,11.241759890894521
1140,Ristorante Nuova Luce,44.828784529816502,11.24199111200428
1134,Casette,44.838058203902989,11.258811440299901
1132,Canaletto scuole,44.837980844442093,11.249509036457239
1130,Canaletto,44.84048214097772,11.240420505373175
1120,Canalazzo,44.842783079231928,11.235094127574881
1114,Barbieri,44.855721281785307,11.208156366046168
1112,Marsala,44.847036323686361,11.221503562573629
1110,Massa Finalese,44.851843023850549,11.21318409465391
1108,Massa Finalese stazione,44.845014273558363,11.201812477551623
1102,Monte di Sopra,44.214569135379854,10.796357530580412
1101,Fanano zona artigianale,44.212523088599092,10.799937891542111
1100,Fanano,44.20853909359041,10.795085246887536
1097,Coppina,44.930819122745099,11.194014106131636
1096,Gavello,44.926264264340865,11.180852225355567
1095,Corte Bonini,44.921607133709038,11.171096982162016
1094,Calanca,44.920846198118618,11.158055787038748
1093,Volta dei Secchi,44.918025752915746,11.150094884858591
1092,Santa Maria,44.915375893360924,11.142128438971962
1091,La Tedesca,44.914559993411075,11.122676475578105
1090,Cristo bv,44.916803447603542,11.111407204168428
1089,Baraccone,44.918990922773609,11.103606601691117
1088,Quarantoli,44.921353770961417,11.096521338021452
1087,Quarantoli Madonnina,44.918023174557703,11.090622736895435
1086,Manarina,44.90908128350145,11.087828194236177
